{
"type": "FeatureCollection",
"name": "test",
"crs": { "type": "name", "properties": { "name": "urn:ogc:def:crs:OGC:1.3:CRS84" } },
"features": [
{ "type": "Feature", "properties": { "カテゴリ": "公立保育園", "名前": "東町保育園", "住所": "柏市東2-1-27", "Latitude": 34.4431218, "Longitude": 132.8324451 }, "geometry": { "type": "Point", "coordinates": [ 132.8324451, 34.4431218 ] } },
{ "type": "Feature", "properties": { "カテゴリ": "公立保育園", "名前": "桜台保育園", "住所": "柏市桜台9-6", "Latitude": 35.860555, "Longitude": 139.981522 }, "geometry": { "type": "Point", "coordinates": [ 139.981522, 35.860555 ] } },
{ "type": "Feature", "properties": { "カテゴリ": "公立保育園", "名前": "増尾保育園", "住所": "柏市増尾6-6-1", "Latitude": 35.8295829, "Longitude": 139.9767076 }, "geometry": { "type": "Point", "coordinates": [ 139.9767076, 35.8295829 ] } },
{ "type": "Feature", "properties": { "カテゴリ": "公立保育園", "名前": "土南部保育園", "住所": "柏市逆井1305-2", "Latitude": 35.8232385, "Longitude": 139.9839107 }, "geometry": { "type": "Point", "coordinates": [ 139.9839107, 35.8232385 ] } },
{ "type": "Feature", "properties": { "カテゴリ": "公立保育園", "名前": "高柳西保育園", "住所": "柏市しいのき台5-31-2", "Latitude": 35.806337267964714, "Longitude": 139.98332918170883 }, "geometry": { "type": "Point", "coordinates": [ 139.983329181708825, 35.806337267964714 ] } },
{ "type": "Feature", "properties": { "カテゴリ": "公立保育園", "名前": "名戸ケ谷保育園", "住所": "柏市名戸ケ谷683-1", "Latitude": 35.843483, "Longitude": 139.9812712 }, "geometry": { "type": "Point", "coordinates": [ 139.9812712, 35.843483 ] } },
{ "type": "Feature", "properties": { "カテゴリ": "公立保育園", "名前": "高野台保育園", "住所": "柏市根戸416-67", "Latitude": 35.881129, "Longitude": 139.986449 }, "geometry": { "type": "Point", "coordinates": [ 139.986449, 35.881129 ] } },
{ "type": "Feature", "properties": { "カテゴリ": "公立保育園", "名前": "豊町保育園", "住所": "柏市豊四季698-28", "Latitude": 35.8665483, "Longitude": 139.9395437 }, "geometry": { "type": "Point", "coordinates": [ 139.9395437, 35.8665483 ] } },
{ "type": "Feature", "properties": { "カテゴリ": "公立保育園", "名前": "東中新宿保育園", "住所": "柏市東中新宿4-5-24", "Latitude": 35.8291308, "Longitude": 139.961333 }, "geometry": { "type": "Point", "coordinates": [ 139.961333, 35.8291308 ] } },
{ "type": "Feature", "properties": { "カテゴリ": "公立保育園", "名前": "旭町保育園", "住所": "柏市旭町5-3-25", "Latitude": 35.8614368, "Longitude": 139.9532749 }, "geometry": { "type": "Point", "coordinates": [ 139.9532749, 35.8614368 ] } },
{ "type": "Feature", "properties": { "カテゴリ": "公立保育園", "名前": "豊住保育園", "住所": "柏市豊住3-1-43", "Latitude": 35.840968, "Longitude": 139.962162 }, "geometry": { "type": "Point", "coordinates": [ 139.962162, 35.840968 ] } },
{ "type": "Feature", "properties": { "カテゴリ": "公立保育園", "名前": "田中保育園", "住所": "柏市正連寺100", "Latitude": 35.9026019, "Longitude": 139.9484537 }, "geometry": { "type": "Point", "coordinates": [ 139.948453699999988, 35.9026019 ] } },
{ "type": "Feature", "properties": { "カテゴリ": "公立保育園", "名前": "しこだ保育園", "住所": "柏市篠籠田1275-5", "Latitude": 35.868124, "Longitude": 139.943357 }, "geometry": { "type": "Point", "coordinates": [ 139.943357, 35.868124 ] } },
{ "type": "Feature", "properties": { "カテゴリ": "公立保育園", "名前": "豊四季保育園", "住所": "柏市豊四季台2-1-120", "Latitude": 35.8622518, "Longitude": 139.9588058 }, "geometry": { "type": "Point", "coordinates": [ 139.9588058, 35.8622518 ] } },
{ "type": "Feature", "properties": { "カテゴリ": "公立保育園", "名前": "酒井根保育園", "住所": "柏市酒井根4-10-33", "Latitude": 35.818148, "Longitude": 139.957828 }, "geometry": { "type": "Point", "coordinates": [ 139.957828, 35.818148 ] } },
{ "type": "Feature", "properties": { "カテゴリ": "公立保育園", "名前": "若葉保育園", "住所": "柏市若葉町4-36", "Latitude": 35.853921, "Longitude": 139.971057 }, "geometry": { "type": "Point", "coordinates": [ 139.971057, 35.853921 ] } },
{ "type": "Feature", "properties": { "カテゴリ": "公立保育園", "名前": "あけぼの保育園", "住所": "柏市あけぼの3-4-18", "Latitude": 35.897833, "Longitude": 140.0076143 }, "geometry": { "type": "Point", "coordinates": [ 140.0076143, 35.897833 ] } },
{ "type": "Feature", "properties": { "カテゴリ": "公立保育園", "名前": "松葉保育園", "住所": "柏市松葉町4-11", "Latitude": 35.8842357, "Longitude": 139.9803553 }, "geometry": { "type": "Point", "coordinates": [ 139.980355300000014, 35.8842357 ] } },
{ "type": "Feature", "properties": { "カテゴリ": "公立保育園", "名前": "高柳保育園", "住所": "柏市高柳1503-9", "Latitude": 35.8081725, "Longitude": 139.9988464 }, "geometry": { "type": "Point", "coordinates": [ 139.9988464, 35.8081725 ] } },
{ "type": "Feature", "properties": { "カテゴリ": "公立保育園", "名前": "富勢保育園", "住所": "柏市布施834-1", "Latitude": 35.891518, "Longitude": 139.992822 }, "geometry": { "type": "Point", "coordinates": [ 139.992822, 35.891518 ] } },
{ "type": "Feature", "properties": { "カテゴリ": "公立保育園", "名前": "西原保育園", "住所": "柏市西原1-4-20", "Latitude": 35.8893609, "Longitude": 139.9235332 }, "geometry": { "type": "Point", "coordinates": [ 139.9235332, 35.8893609 ] } },
{ "type": "Feature", "properties": { "カテゴリ": "公立保育園", "名前": "富士見保育園", "住所": "柏市豊四季126-2", "Latitude": 35.8665483, "Longitude": 139.9395437 }, "geometry": { "type": "Point", "coordinates": [ 139.9395437, 35.8665483 ] } },
{ "type": "Feature", "properties": { "カテゴリ": "私立認可保育園", "名前": "さく良保育園", "住所": "柏市高柳2-6-4", "Latitude": 35.8081725, "Longitude": 139.9988464 }, "geometry": { "type": "Point", "coordinates": [ 139.9988464, 35.8081725 ] } },
{ "type": "Feature", "properties": { "カテゴリ": "私立認可保育園", "名前": "AIAI NURSERY　高柳", "住所": "柏市高柳1493番1", "Latitude": 35.809115, "Longitude": 140.000991 }, "geometry": { "type": "Point", "coordinates": [ 140.000991, 35.809115 ] } },
{ "type": "Feature", "properties": { "カテゴリ": "私立認可保育園", "名前": "柏さかさい保育園", "住所": "柏市逆井1377-1", "Latitude": 35.8232385, "Longitude": 139.9839107 }, "geometry": { "type": "Point", "coordinates": [ 139.9839107, 35.8232385 ] } },
{ "type": "Feature", "properties": { "カテゴリ": "私立認可保育園", "名前": "ニチイキッズ逆井みなみ保育園", "住所": "柏市逆井5-15-19", "Latitude": 35.8232385, "Longitude": 139.9839107 }, "geometry": { "type": "Point", "coordinates": [ 139.9839107, 35.8232385 ] } },
{ "type": "Feature", "properties": { "カテゴリ": "私立認可保育園", "名前": "AIAI NURSERY 第二新柏", "住所": "柏市新柏1-1810-5", "Latitude": 35.838506, "Longitude": 139.9666532 }, "geometry": { "type": "Point", "coordinates": [ 139.9666532, 35.838506 ] } },
{ "type": "Feature", "properties": { "カテゴリ": "私立認可保育園", "名前": "柏保育園", "住所": "柏市南柏中央6-5　クイーンビル１・２Ｆ", "Latitude": 35.843765327798103, "Longitude": 139.9549362501412 }, "geometry": { "type": "Point", "coordinates": [ 139.954936250141202, 35.843765327798103 ] } },
{ "type": "Feature", "properties": { "カテゴリ": "私立認可保育園", "名前": "柏中央保育園", "住所": "柏市明原1-2-10　 1～３Ｆ", "Latitude": 34.5632343, "Longitude": 135.6264601 }, "geometry": { "type": "Point", "coordinates": [ 135.6264601, 34.5632343 ] } },
{ "type": "Feature", "properties": { "カテゴリ": "私立認可保育園", "名前": "ピノキオ幼児舎南柏保育園", "住所": "柏市南柏1-6-12　穂高第２０ブラザーズビル南柏1Ｆ", "Latitude": 35.845754224312451, "Longitude": 139.95462820630675 }, "geometry": { "type": "Point", "coordinates": [ 139.954628206306751, 35.845754224312451 ] } },
{ "type": "Feature", "properties": { "カテゴリ": "私立認可保育園", "名前": "AIAI NURSERY 新柏", "住所": "柏市豊住1-3-27", "Latitude": 35.840968, "Longitude": 139.962162 }, "geometry": { "type": "Point", "coordinates": [ 139.962162, 35.840968 ] } },
{ "type": "Feature", "properties": { "カテゴリ": "私立認可保育園", "名前": "巻石堂さくら保育園", "住所": "柏市柏3-10-28", "Latitude": 35.8616954, "Longitude": 139.9701737 }, "geometry": { "type": "Point", "coordinates": [ 139.9701737, 35.8616954 ] } },
{ "type": "Feature", "properties": { "カテゴリ": "私立認可保育園", "名前": "ニチイキッズ柏保育園", "住所": "柏市新柏1-13-9　ニチイケアプラザ柏2Ｆ", "Latitude": 35.840175230410537, "Longitude": 139.96797602177537 }, "geometry": { "type": "Point", "coordinates": [ 139.967976021775371, 35.840175230410537 ] } },
{ "type": "Feature", "properties": { "カテゴリ": "私立認可保育園", "名前": "ら・くれしゅ柏駅前保育園", "住所": "柏市旭町1-6-1サザンテナ柏2F", "Latitude": 35.861738952879563, "Longitude": 139.96997639077614 }, "geometry": { "type": "Point", "coordinates": [ 139.969976390776139, 35.861738952879563 ] } },
{ "type": "Feature", "properties": { "カテゴリ": "私立認可保育園", "名前": "あいみ保育園", "住所": "柏市大津ヶ丘3-3-2", "Latitude": 35.8446475, "Longitude": 140.003068 }, "geometry": { "type": "Point", "coordinates": [ 140.003068, 35.8446475 ] } },
{ "type": "Feature", "properties": { "カテゴリ": "私立認可保育園", "名前": "咲保育園", "住所": "柏市大井1187-1", "Latitude": 35.850154, "Longitude": 140.00441 }, "geometry": { "type": "Point", "coordinates": [ 140.00441, 35.850154 ] } },
{ "type": "Feature", "properties": { "カテゴリ": "私立認可保育園", "名前": "かしわのはこころ保育園", "住所": "柏市若柴280-10　中央171街区3", "Latitude": 35.889120065507427, "Longitude": 139.95076730565944 }, "geometry": { "type": "Point", "coordinates": [ 139.95076730565944, 35.889120065507427 ] } },
{ "type": "Feature", "properties": { "カテゴリ": "私立認可保育園", "名前": "まなびの森保育園豊四季", "住所": "柏市豊四季185-1", "Latitude": 35.8665483, "Longitude": 139.9395437 }, "geometry": { "type": "Point", "coordinates": [ 139.9395437, 35.8665483 ] } },
{ "type": "Feature", "properties": { "カテゴリ": "私立認可保育園", "名前": "つじなか柏の葉保育園", "住所": "柏市若柴278-8　中央178街区11", "Latitude": 35.890648519728771, "Longitude": 139.95148359077692 }, "geometry": { "type": "Point", "coordinates": [ 139.951483590776917, 35.890648519728771 ] } },
{ "type": "Feature", "properties": { "カテゴリ": "私立認可保育園", "名前": "LIFE SCHOOL 柏の葉菜", "住所": "柏市十余二287-308", "Latitude": 35.882628, "Longitude": 139.959308 }, "geometry": { "type": "Point", "coordinates": [ 139.959308, 35.882628 ] } },
{ "type": "Feature", "properties": { "カテゴリ": "私立認可保育園", "名前": "小学館アカデミー柏しこだの森保育園", "住所": "柏市篠籠田573-1", "Latitude": 35.868124, "Longitude": 139.943357 }, "geometry": { "type": "Point", "coordinates": [ 139.943357, 35.868124 ] } },
{ "type": "Feature", "properties": { "カテゴリ": "私立認可保育園", "名前": "北柏駅前保育園わらび", "住所": "柏市北柏3-2-5", "Latitude": 35.87565, "Longitude": 139.9880138 }, "geometry": { "type": "Point", "coordinates": [ 139.9880138, 35.87565 ] } },
{ "type": "Feature", "properties": { "カテゴリ": "私立認可保育園", "名前": "アイグラン保育園 柏たなか駅前", "住所": "柏市小青田2-8-1", "Latitude": 35.9107918, "Longitude": 139.9501251 }, "geometry": { "type": "Point", "coordinates": [ 139.9501251, 35.9107918 ] } },
{ "type": "Feature", "properties": { "カテゴリ": "私立認可保育園", "名前": "めばえ保育園", "住所": "柏市若柴226-14　中央145街区6", "Latitude": 35.898034445230984, "Longitude": 139.95441237319753 }, "geometry": { "type": "Point", "coordinates": [ 139.954412373197528, 35.898034445230984 ] } },
{ "type": "Feature", "properties": { "カテゴリ": "私立認可保育園", "名前": "船戸ブロッサム保育園", "住所": "柏市船戸1-5-24", "Latitude": 35.922733, "Longitude": 139.948435 }, "geometry": { "type": "Point", "coordinates": [ 139.948435, 35.922733 ] } },
{ "type": "Feature", "properties": { "カテゴリ": "私立認可保育園", "名前": "かしわおおむろこころ保育園", "住所": "柏市大室162-35", "Latitude": 35.903394, "Longitude": 139.965102 }, "geometry": { "type": "Point", "coordinates": [ 139.965102, 35.903394 ] } },
{ "type": "Feature", "properties": { "カテゴリ": "私立認可保育園", "名前": "柏の葉キャンパス保育園", "住所": "柏市若柴173-8　柏の葉キャンパス151街区A棟1Ｆ", "Latitude": 35.893451560891748, "Longitude": 139.95462717728353 }, "geometry": { "type": "Point", "coordinates": [ 139.954627177283527, 35.893451560891748 ] } },
{ "type": "Feature", "properties": { "カテゴリ": "私立認可保育園", "名前": "さくらさくみらい柏の葉", "住所": "柏市若柴178-4　柏の葉キャンパス148街区1A", "Latitude": 35.896799860522123, "Longitude": 139.95073766009295 }, "geometry": { "type": "Point", "coordinates": [ 139.950737660092955, 35.896799860522123 ] } },
{ "type": "Feature", "properties": { "カテゴリ": "私立認可保育園", "名前": "Gakkenほいくえん柏の葉", "住所": "柏市若柴227-6　柏の葉キャンパス147街区コモンＤ棟", "Latitude": 35.897309475575142, "Longitude": 139.950735266468 }, "geometry": { "type": "Point", "coordinates": [ 139.950735266468001, 35.897309475575142 ] } },
{ "type": "Feature", "properties": { "カテゴリ": "私立認可保育園", "名前": "花の井保育園", "住所": "柏市大室1285-12", "Latitude": 35.903394, "Longitude": 139.965102 }, "geometry": { "type": "Point", "coordinates": [ 139.965102, 35.903394 ] } },
{ "type": "Feature", "properties": { "カテゴリ": "私立認可保育園", "名前": "あんのん保育園", "住所": "柏市大室1052-1", "Latitude": 35.903394, "Longitude": 139.965102 }, "geometry": { "type": "Point", "coordinates": [ 139.965102, 35.903394 ] } },
{ "type": "Feature", "properties": { "カテゴリ": "私立認可保育園", "名前": "かしわSMILEこころ保育園", "住所": "小青田3-6-1", "Latitude": 35.909856, "Longitude": 139.9529335 }, "geometry": { "type": "Point", "coordinates": [ 139.9529335, 35.909856 ] } },
{ "type": "Feature", "properties": { "カテゴリ": "小規模保育施設", "名前": "晴山の森", "住所": "柏市しいの木台5-47-4", "Latitude": 35.804021077389265, "Longitude": 139.98149995127443 }, "geometry": { "type": "Point", "coordinates": [ 139.981499951274429, 35.804021077389265 ] } },
{ "type": "Feature", "properties": { "カテゴリ": "小規模保育施設", "名前": "アルタベビー柏園", "住所": "柏市柏4丁目6-12澁谷ビル1階", "Latitude": 35.863809247428257, "Longitude": 139.9754369987235 }, "geometry": { "type": "Point", "coordinates": [ 139.975436998723495, 35.863809247428257 ] } },
{ "type": "Feature", "properties": { "カテゴリ": "小規模保育施設", "名前": "北柏小規模保育園わらび", "住所": "柏市北柏1-1-1　VERDE GRANDE 0011号室", "Latitude": 35.875525049019267, "Longitude": 139.98764538338173 }, "geometry": { "type": "Point", "coordinates": [ 139.987645383381732, 35.875525049019267 ] } },
{ "type": "Feature", "properties": { "カテゴリ": "小規模保育施設", "名前": "アルタベビー南柏園", "住所": "柏市豊町1-1-12", "Latitude": 35.849672, "Longitude": 139.9623764 }, "geometry": { "type": "Point", "coordinates": [ 139.962376400000011, 35.849672 ] } },
{ "type": "Feature", "properties": { "カテゴリ": "小規模保育施設", "名前": "Gakkenほいくえん柏豊四季台", "住所": "柏市豊四季台1-3-1　2Ｆ", "Latitude": 35.8622518, "Longitude": 139.9588058 }, "geometry": { "type": "Point", "coordinates": [ 139.9588058, 35.8622518 ] } },
{ "type": "Feature", "properties": { "カテゴリ": "小規模保育施設", "名前": "柏サンフラワー保育園", "住所": "柏市中央町2-12　Crobis柏1階", "Latitude": 35.860193614673193, "Longitude": 139.97094635399313 }, "geometry": { "type": "Point", "coordinates": [ 139.970946353993128, 35.860193614673193 ] } },
{ "type": "Feature", "properties": { "カテゴリ": "小規模保育施設", "名前": "柏こばと保育園ぷりん", "住所": "柏市十余二287-273", "Latitude": 35.882628, "Longitude": 139.959308 }, "geometry": { "type": "Point", "coordinates": [ 139.959308, 35.882628 ] } },
{ "type": "Feature", "properties": { "カテゴリ": "小規模保育施設", "名前": "キッズルームアリス高柳保育園", "住所": "柏市高柳1498-1", "Latitude": 35.8081725, "Longitude": 139.9988464 }, "geometry": { "type": "Point", "coordinates": [ 139.9988464, 35.8081725 ] } },
{ "type": "Feature", "properties": { "カテゴリ": "小規模保育施設", "名前": "オハナゆめキッズハウス柏の葉チコル", "住所": "柏市若柴178番地4柏の葉キャンパス148街区1パークシティ柏の葉キャンパス・ザゲートタワーウエスト3F", "Latitude": 35.895711819888852, "Longitude": 139.95169037913237 }, "geometry": { "type": "Point", "coordinates": [ 139.951690379132373, 35.895711819888852 ] } },
{ "type": "Feature", "properties": { "カテゴリ": "小規模保育施設", "名前": "柏の葉わんぱくの杜保育園", "住所": "柏市若柴264-1　中央181街区2", "Latitude": 35.891958706986181, "Longitude": 139.95044775029672 }, "geometry": { "type": "Point", "coordinates": [ 139.950447750296718, 35.891958706986181 ] } },
{ "type": "Feature", "properties": { "カテゴリ": "私立幼稚園", "名前": "吉田幼稚園", "住所": "柏市増尾1-10-7", "Latitude": 35.8295829, "Longitude": 139.9767076 }, "geometry": { "type": "Point", "coordinates": [ 139.9767076, 35.8295829 ] } },
{ "type": "Feature", "properties": { "カテゴリ": "私立幼稚園", "名前": "柏さくら幼稚園", "住所": "柏市酒井根11-4", "Latitude": 35.818148, "Longitude": 139.957828 }, "geometry": { "type": "Point", "coordinates": [ 139.957828, 35.818148 ] } },
{ "type": "Feature", "properties": { "カテゴリ": "私立幼稚園", "名前": "百合園幼稚園", "住所": "柏市中央1-7-7", "Latitude": 45.41556, "Longitude": 141.6742478 }, "geometry": { "type": "Point", "coordinates": [ 141.674247799999989, 45.41556 ] } },
{ "type": "Feature", "properties": { "カテゴリ": "私立幼稚園", "名前": "沼南幼稚園", "住所": "柏市加賀2丁目13-1", "Latitude": 35.817985867151243, "Longitude": 139.99978616009037 }, "geometry": { "type": "Point", "coordinates": [ 139.999786160090366, 35.817985867151243 ] } },
{ "type": "Feature", "properties": { "カテゴリ": "私立幼稚園", "名前": "大津ケ丘幼稚園", "住所": "柏市高柳623-4", "Latitude": 35.8081725, "Longitude": 139.9988464 }, "geometry": { "type": "Point", "coordinates": [ 139.9988464, 35.8081725 ] } },
{ "type": "Feature", "properties": { "カテゴリ": "私立幼稚園", "名前": "柏陽幼稚園", "住所": "柏市大津ケ丘4-7", "Latitude": 35.8446475, "Longitude": 140.003068 }, "geometry": { "type": "Point", "coordinates": [ 140.003068, 35.8446475 ] } },
{ "type": "Feature", "properties": { "カテゴリ": "私立幼稚園", "名前": "麗澤幼稚園", "住所": "柏市今谷上町19", "Latitude": 35.8398873, "Longitude": 139.9562725 }, "geometry": { "type": "Point", "coordinates": [ 139.956272500000011, 35.8398873 ] } },
{ "type": "Feature", "properties": { "カテゴリ": "私立幼稚園", "名前": "にしはら幼稚園", "住所": "柏市みどり台1-11-1", "Latitude": 35.9025458, "Longitude": 139.9187044 }, "geometry": { "type": "Point", "coordinates": [ 139.9187044, 35.9025458 ] } },
{ "type": "Feature", "properties": { "カテゴリ": "認定こども園", "名前": "認定こども園第二ますお幼稚園", "住所": "柏市増尾台4-6-60", "Latitude": 35.8343014, "Longitude": 139.9820509 }, "geometry": { "type": "Point", "coordinates": [ 139.9820509, 35.8343014 ] } },
{ "type": "Feature", "properties": { "カテゴリ": "認定こども園", "名前": "認定こども園まつがさきの森幼稚園", "住所": "柏市松ヶ崎225-3", "Latitude": 35.8734468, "Longitude": 139.968658 }, "geometry": { "type": "Point", "coordinates": [ 139.968658, 35.8734468 ] } },
{ "type": "Feature", "properties": { "カテゴリ": "認定こども園", "名前": "認定こども園みくになかよしこども園", "住所": "柏市大室3-15-2", "Latitude": 35.903394, "Longitude": 139.965102 }, "geometry": { "type": "Point", "coordinates": [ 139.965102, 35.903394 ] } },
{ "type": "Feature", "properties": { "カテゴリ": "認定こども園", "名前": "認定こども園くりの木幼稚園", "住所": "柏市豊四季633-15", "Latitude": 35.8665483, "Longitude": 139.9395437 }, "geometry": { "type": "Point", "coordinates": [ 139.9395437, 35.8665483 ] } },
{ "type": "Feature", "properties": { "カテゴリ": "認定こども園", "名前": "認定こども園たなか幼稚園", "住所": "柏市大室1263", "Latitude": 35.903394, "Longitude": 139.965102 }, "geometry": { "type": "Point", "coordinates": [ 139.965102, 35.903394 ] } },
{ "type": "Feature", "properties": { "カテゴリ": "認定こども園", "名前": "柏みどりこども園", "住所": "柏市東中新宿3-23-10", "Latitude": 35.5127658, "Longitude": 139.4525863 }, "geometry": { "type": "Point", "coordinates": [ 139.4525863, 35.5127658 ] } },
{ "type": "Feature", "properties": { "カテゴリ": "認定こども園", "名前": "認定こども園きたかしわ幼稚園", "住所": "柏市十余二287-61", "Latitude": 35.882628, "Longitude": 139.959308 }, "geometry": { "type": "Point", "coordinates": [ 139.959308, 35.882628 ] } },
{ "type": "Feature", "properties": { "カテゴリ": "認定こども園", "名前": "認定こども園くるみこども園", "住所": "柏市豊四季台1-1-113", "Latitude": 35.8622518, "Longitude": 139.9588058 }, "geometry": { "type": "Point", "coordinates": [ 139.9588058, 35.8622518 ] } },
{ "type": "Feature", "properties": { "カテゴリ": "認定こども園", "名前": "認定こども園豊四季幼稚園", "住所": "柏市旭町7-4-58", "Latitude": 35.8614368, "Longitude": 139.9532749 }, "geometry": { "type": "Point", "coordinates": [ 139.9532749, 35.8614368 ] } },
{ "type": "Feature", "properties": { "カテゴリ": "認定こども園", "名前": "認定こども園柏めぐみ園", "住所": "柏市若葉町7-17", "Latitude": 35.853921, "Longitude": 139.971057 }, "geometry": { "type": "Point", "coordinates": [ 139.971057, 35.853921 ] } },
{ "type": "Feature", "properties": { "カテゴリ": "認定こども園", "名前": "認定こども園柏こばと学園", "住所": "柏市十余二287-270", "Latitude": 35.882628, "Longitude": 139.959308 }, "geometry": { "type": "Point", "coordinates": [ 139.959308, 35.882628 ] } },
{ "type": "Feature", "properties": { "カテゴリ": "認定こども園", "名前": "認定こども園まつばようちえん", "住所": "柏市松葉町5丁目8番地", "Latitude": 35.512949, "Longitude": 137.8218252 }, "geometry": { "type": "Point", "coordinates": [ 137.8218252, 35.512949 ] } },
{ "type": "Feature", "properties": { "カテゴリ": "認定こども園", "名前": "認定こども園みくに学園", "住所": "柏市旭町1-6-14", "Latitude": 35.8614368, "Longitude": 139.9532749 }, "geometry": { "type": "Point", "coordinates": [ 139.9532749, 35.8614368 ] } },
{ "type": "Feature", "properties": { "カテゴリ": "認定こども園", "名前": "柏こばと保育園たまご", "住所": "柏市松葉町3-15-1", "Latitude": 35.8842357, "Longitude": 139.9803553 }, "geometry": { "type": "Point", "coordinates": [ 139.980355300000014, 35.8842357 ] } },
{ "type": "Feature", "properties": { "カテゴリ": "認定こども園", "名前": "認定こども園手賀の丘幼稚園・保育園", "住所": "柏市五條谷423-5", "Latitude": 35.848037, "Longitude": 140.01634 }, "geometry": { "type": "Point", "coordinates": [ 140.01634, 35.848037 ] } },
{ "type": "Feature", "properties": { "カテゴリ": "認定こども園", "名前": "幼稚園型認定こども園柏ひがし幼稚園", "住所": "柏市布施新町1-5-10", "Latitude": 40.8066052, "Longitude": 140.4441201 }, "geometry": { "type": "Point", "coordinates": [ 140.4441201, 40.8066052 ] } },
{ "type": "Feature", "properties": { "カテゴリ": "認定こども園", "名前": "認定こども園とみせ幼稚園", "住所": "柏市根戸351-2", "Latitude": 35.881129, "Longitude": 139.986449 }, "geometry": { "type": "Point", "coordinates": [ 139.986449, 35.881129 ] } },
{ "type": "Feature", "properties": { "カテゴリ": "認定こども園", "名前": "こばとこどもえんネスト", "住所": "柏市中十余二207-1　中央185街区1", "Latitude": 35.891283360123943, "Longitude": 139.94558448707951 }, "geometry": { "type": "Point", "coordinates": [ 139.945584487079515, 35.891283360123943 ] } },
{ "type": "Feature", "properties": { "カテゴリ": "認定こども園", "名前": "柏の葉こども園", "住所": "柏市十余二363-48", "Latitude": 35.882628, "Longitude": 139.959308 }, "geometry": { "type": "Point", "coordinates": [ 139.959308, 35.882628 ] } },
{ "type": "Feature", "properties": { "カテゴリ": "認定こども園", "名前": "柏の葉はぐくみこども園", "住所": "柏市十余二翁台370-84 中央218街区8", "Latitude": 35.887069309427588, "Longitude": 139.95084333495444 }, "geometry": { "type": "Point", "coordinates": [ 139.950843334954442, 35.887069309427588 ] } },
{ "type": "Feature", "properties": { "カテゴリ": "児童センター", "名前": "しこだ児童センター", "住所": "柏市篠籠田609-5", "Latitude": 35.868124, "Longitude": 139.943357 }, "geometry": { "type": "Point", "coordinates": [ 139.943357, 35.868124 ] } },
{ "type": "Feature", "properties": { "カテゴリ": "児童センター", "名前": "光ケ丘遊戯室", "住所": "柏市光ヶ丘団地200-5光ヶ丘近隣センター2階遊戯室", "Latitude": 35.831709917396189, "Longitude": 139.95718450207315 }, "geometry": { "type": "Point", "coordinates": [ 139.957184502073147, 35.831709917396189 ] } },
{ "type": "Feature", "properties": { "カテゴリ": "児童センター", "名前": "永楽台児童センター", "住所": "柏市永楽台2-11-25", "Latitude": 35.8424505, "Longitude": 139.9708677 }, "geometry": { "type": "Point", "coordinates": [ 139.970867700000014, 35.8424505 ] } },
{ "type": "Feature", "properties": { "カテゴリ": "児童センター", "名前": "南部こどもの広場", "住所": "柏市新逆井2-5-13南部近隣センター内", "Latitude": 35.80970968760608, "Longitude": 139.97261521776127 }, "geometry": { "type": "Point", "coordinates": [ 139.972615217761273, 35.80970968760608 ] } },
{ "type": "Feature", "properties": { "カテゴリ": "児童センター", "名前": "布施遊戯室", "住所": "柏市布施1196-5布施近隣センター内", "Latitude": 35.892097189527625, "Longitude": 139.99826143865198 }, "geometry": { "type": "Point", "coordinates": [ 139.99826143865198, 35.892097189527625 ] } },
{ "type": "Feature", "properties": { "カテゴリ": "児童センター", "名前": "高柳児童センター", "住所": "柏市高柳1652-1", "Latitude": 35.8081725, "Longitude": 139.9988464 }, "geometry": { "type": "Point", "coordinates": [ 139.9988464, 35.8081725 ] } },
{ "type": "Feature", "properties": { "カテゴリ": "児童センター", "名前": "豊四季台児童センター", "住所": "柏市かやの町2-26", "Latitude": 35.865931, "Longitude": 139.954568 }, "geometry": { "type": "Point", "coordinates": [ 139.954568, 35.865931 ] } },
{ "type": "Feature", "properties": { "カテゴリ": "地域子育て支援拠点", "名前": "サンサンたいよう組（巻石堂さくら保育園）", "住所": "柏市柏3-10-28　巻石堂さくら保育園内", "Latitude": 35.862328911045388, "Longitude": 139.97594475639457 }, "geometry": { "type": "Point", "coordinates": [ 139.975944756394568, 35.862328911045388 ] } },
{ "type": "Feature", "properties": { "カテゴリ": "地域子育て支援拠点", "名前": "あしびなぁ（北柏駅前保育園わらび）", "住所": "柏市北柏3-2-5 北柏駅前保育園わらび内", "Latitude": 35.874793286480681, "Longitude": 139.98792634844744 }, "geometry": { "type": "Point", "coordinates": [ 139.987926348447445, 35.874793286480681 ] } },
{ "type": "Feature", "properties": { "カテゴリ": "地域子育て支援拠点", "名前": "おやこの広場「あ・そ・ぼ」（柏みどり保育園）", "住所": "柏市東中新宿３－２３－１　柏みどり保育園内", "Latitude": 35.832368794194714, "Longitude": 139.96497920855259 }, "geometry": { "type": "Point", "coordinates": [ 139.964979208552592, 35.832368794194714 ] } },
{ "type": "Feature", "properties": { "カテゴリ": "地域子育て支援拠点", "名前": "しこだ児童センター", "住所": "柏市篠籠田609-5", "Latitude": 35.868124, "Longitude": 139.943357 }, "geometry": { "type": "Point", "coordinates": [ 139.943357, 35.868124 ] } },
{ "type": "Feature", "properties": { "カテゴリ": "地域子育て支援拠点", "名前": "くるみサロン（認定こども園くるみこども園）", "住所": "柏市豊四季台1-1-113 認定こども園くるみこども園内", "Latitude": 35.86590188780638, "Longitude": 139.95806224361078 }, "geometry": { "type": "Point", "coordinates": [ 139.958062243610783, 35.86590188780638 ] } },
{ "type": "Feature", "properties": { "カテゴリ": "地域子育て支援拠点", "名前": "ぺんぎん組（吉野沢保育園）", "住所": "柏市豊平町11-18　吉野沢保育園内", "Latitude": 35.412863, "Longitude": 136.766356 }, "geometry": { "type": "Point", "coordinates": [ 136.766356, 35.412863 ] } },
{ "type": "Feature", "properties": { "カテゴリ": "地域子育て支援拠点", "名前": "こあら（酒井根保育園）", "住所": "柏市酒井根4-10-33　酒井根保育園内", "Latitude": 35.820470957041515, "Longitude": 139.96029055454454 }, "geometry": { "type": "Point", "coordinates": [ 139.960290554544542, 35.820470957041515 ] } },
{ "type": "Feature", "properties": { "カテゴリ": "地域子育て支援拠点", "名前": "はぐはぐひろば柏たなか", "住所": "柏市大室1-4　柏市地域子育て支援施設内", "Latitude": 35.909584755279617, "Longitude": 139.95766502272932 }, "geometry": { "type": "Point", "coordinates": [ 139.957665022729316, 35.909584755279617 ] } },
{ "type": "Feature", "properties": { "カテゴリ": "地域子育て支援拠点", "名前": "おいかけっこ（認定こども園柏こばと学園）", "住所": "柏市十余二287-270 柏こばと学園内", "Latitude": 35.885210929479065, "Longitude": 139.96891901381514 }, "geometry": { "type": "Point", "coordinates": [ 139.968919013815139, 35.885210929479065 ] } },
{ "type": "Feature", "properties": { "カテゴリ": "地域子育て支援拠点", "名前": "まことちゃん（柏さかさい保育園）", "住所": "柏市逆井1377-1　柏さかさい保育園内", "Latitude": 35.814487171724984, "Longitude": 139.97349110693111 }, "geometry": { "type": "Point", "coordinates": [ 139.973491106931107, 35.814487171724984 ] } },
{ "type": "Feature", "properties": { "カテゴリ": "地域子育て支援拠点", "名前": "南部こどもの広場", "住所": "柏市新逆井2-5-13　南部近隣センター内", "Latitude": 35.809549730738631, "Longitude": 139.97235057020026 }, "geometry": { "type": "Point", "coordinates": [ 139.972350570200263, 35.809549730738631 ] } },
{ "type": "Feature", "properties": { "カテゴリ": "地域子育て支援拠点", "名前": "ステップ（柏中央保育園）", "住所": "柏市明原１－２－１０　柏中央保育園内", "Latitude": 35.864806324572989, "Longitude": 139.96590401476286 }, "geometry": { "type": "Point", "coordinates": [ 139.965904014762856, 35.864806324572989 ] } },
{ "type": "Feature", "properties": { "カテゴリ": "地域子育て支援拠点", "名前": "おひさまクラブ（花の井保育園）", "住所": "柏市大室1285-12　花の井保育園内", "Latitude": 34.9850498, "Longitude": 135.7953376 }, "geometry": { "type": "Point", "coordinates": [ 135.795337600000011, 34.9850498 ] } },
{ "type": "Feature", "properties": { "カテゴリ": "地域子育て支援拠点", "名前": "高柳児童センター", "住所": "柏市高柳1652-1", "Latitude": 35.8081725, "Longitude": 139.9988464 }, "geometry": { "type": "Point", "coordinates": [ 139.9988464, 35.8081725 ] } },
{ "type": "Feature", "properties": { "カテゴリ": "地域子育て支援拠点", "名前": "ゆうゆう（みなみ高柳保育園）", "住所": "柏市高柳1336-1　みなみ高柳保育園内", "Latitude": 35.813892758019314, "Longitude": 139.99987627128434 }, "geometry": { "type": "Point", "coordinates": [ 139.999876271284336, 35.813892758019314 ] } },
{ "type": "Feature", "properties": { "カテゴリ": "地域子育て支援拠点", "名前": "はぐはぐひろば沼南", "住所": "柏市風早1-2-2　沼南社会福祉センター内", "Latitude": 35.831518830208573, "Longitude": 140.00947790410319 }, "geometry": { "type": "Point", "coordinates": [ 140.009477904103193, 35.831518830208573 ] } },
{ "type": "Feature", "properties": { "カテゴリ": "地域子育て支援拠点", "名前": "さっちゃん家（おお田保育園） （休止中）", "住所": "柏市大青田１５０７－８　おお田保育園内", "Latitude": 35.914338080172428, "Longitude": 139.94003928486848 }, "geometry": { "type": "Point", "coordinates": [ 139.940039284868476, 35.914338080172428 ] } },
{ "type": "Feature", "properties": { "カテゴリ": "地域子育て支援拠点", "名前": "KidsSquare(キッズスクエア)(ひかり隣保館保育園）", "住所": "柏市十余二175-42　ひかり隣保館保育園内", "Latitude": 35.888731037538484, "Longitude": 139.94064693370106 }, "geometry": { "type": "Point", "coordinates": [ 139.940646933701061, 35.888731037538484 ] } },
{ "type": "Feature", "properties": { "カテゴリ": "地域子育て支援拠点", "名前": "ひ・ま・わ・り（柏の葉キャンパス保育園）（休止中）", "住所": "柏市若柴１７３－８柏の葉キャンパス151街区Ａ棟1階　柏の葉キャンパス保育園内", "Latitude": 35.893213491898294, "Longitude": 139.95423928012744 }, "geometry": { "type": "Point", "coordinates": [ 139.954239280127439, 35.893213491898294 ] } },
{ "type": "Feature", "properties": { "カテゴリ": "地域子育て支援拠点", "名前": "豊四季台児童センター", "住所": "柏市かやの町2-26（旧豊四季乳児保育園2階）", "Latitude": 35.888692672133494, "Longitude": 139.94059843167159 }, "geometry": { "type": "Point", "coordinates": [ 139.940598431671589, 35.888692672133494 ] } },
{ "type": "Feature", "properties": { "カテゴリ": "地域子育て支援拠点", "名前": "子育て玉手箱（Gakkenほいくえん柏の葉）", "住所": "柏市若柴227-6　パークシティ柏の葉キャンパス二番街コモンD棟 Gakk", "Latitude": 35.897169329734801, "Longitude": 139.95044455419819 }, "geometry": { "type": "Point", "coordinates": [ 139.950444554198185, 35.897169329734801 ] } },
{ "type": "Feature", "properties": { "カテゴリ": "こどもルーム", "名前": "松葉二小こどもルーム", "住所": "柏市松葉町2-16　松葉第二小学校内", "Latitude": 35.888025209933211, "Longitude": 139.97460998300537 }, "geometry": { "type": "Point", "coordinates": [ 139.974609983005365, 35.888025209933211 ] } },
{ "type": "Feature", "properties": { "カテゴリ": "こどもルーム", "名前": "増尾西小こどもルーム", "住所": "柏市増尾台3-5-9 増尾西小学校内", "Latitude": 35.825235363310412, "Longitude": 139.97455770789011 }, "geometry": { "type": "Point", "coordinates": [ 139.974557707890114, 35.825235363310412 ] } },
{ "type": "Feature", "properties": { "カテゴリ": "こどもルーム", "名前": "富勢西小こどもルーム", "住所": "柏市布施84-2　富勢西小学校内", "Latitude": 34.9930346, "Longitude": 135.7514143 }, "geometry": { "type": "Point", "coordinates": [ 135.7514143, 34.9930346 ] } },
{ "type": "Feature", "properties": { "カテゴリ": "こどもルーム", "名前": "藤心小こどもルーム", "住所": "柏市藤心880-1　藤心小学校内", "Latitude": 35.0017445, "Longitude": 135.7439744 }, "geometry": { "type": "Point", "coordinates": [ 135.743974400000013, 35.0017445 ] } },
{ "type": "Feature", "properties": { "カテゴリ": "こどもルーム", "名前": "名戸ケ谷小こどもルーム", "住所": "柏市名戸ケ谷474-1　名戸ケ谷小学校内", "Latitude": 35.846953293058242, "Longitude": 139.98459926768848 }, "geometry": { "type": "Point", "coordinates": [ 139.98459926768848, 35.846953293058242 ] } },
{ "type": "Feature", "properties": { "カテゴリ": "こどもルーム", "名前": "柏五小こどもルーム", "住所": "柏市柏932-7　柏第五小学校内", "Latitude": 35.862482931798759, "Longitude": 139.9840188240498 }, "geometry": { "type": "Point", "coordinates": [ 139.984018824049798, 35.862482931798759 ] } },
{ "type": "Feature", "properties": { "カテゴリ": "こどもルーム", "名前": "豊小こどもルーム", "住所": "柏市豊四季610-2　豊小学校内", "Latitude": 35.843987727268839, "Longitude": 139.96244597277499 }, "geometry": { "type": "Point", "coordinates": [ 139.962445972774987, 35.843987727268839 ] } },
{ "type": "Feature", "properties": { "カテゴリ": "こどもルーム", "名前": "酒井根小こどもルーム", "住所": "柏市酒井根19-2　酒井根小学校内", "Latitude": 35.81976552916494, "Longitude": 139.96202860591964 }, "geometry": { "type": "Point", "coordinates": [ 139.962028605919642, 35.81976552916494 ] } },
{ "type": "Feature", "properties": { "カテゴリ": "こどもルーム", "名前": "旭東小こどもルーム", "住所": "柏市旭町5-3-9 旭東小学校内", "Latitude": 37.9140235, "Longitude": 139.0428065 }, "geometry": { "type": "Point", "coordinates": [ 139.042806500000012, 37.9140235 ] } },
{ "type": "Feature", "properties": { "カテゴリ": "こどもルーム", "名前": "酒井根東小こどもルーム", "住所": "柏市酒井根1-2-1 酒井根東小学校内", "Latitude": 35.825550883258352, "Longitude": 139.96384015875881 }, "geometry": { "type": "Point", "coordinates": [ 139.963840158758813, 35.825550883258352 ] } },
{ "type": "Feature", "properties": { "カテゴリ": "こどもルーム", "名前": "田中小こどもルーム", "住所": "柏市大室1193-3　田中小学校内", "Latitude": 37.9140235, "Longitude": 139.0428065 }, "geometry": { "type": "Point", "coordinates": [ 139.042806500000012, 37.9140235 ] } },
{ "type": "Feature", "properties": { "カテゴリ": "こどもルーム", "名前": "柏七小こどもルーム", "住所": "柏市篠籠田723-1 柏第七小学校内", "Latitude": 35.871704687432114, "Longitude": 139.9569366385677 }, "geometry": { "type": "Point", "coordinates": [ 139.956936638567697, 35.871704687432114 ] } },
{ "type": "Feature", "properties": { "カテゴリ": "こどもルーム", "名前": "光ケ丘小こどもルーム", "住所": "流山市向小金4-20-1　光ケ丘小学校内", "Latitude": 35.835401515703829, "Longitude": 139.95619788870255 }, "geometry": { "type": "Point", "coordinates": [ 139.956197888702548, 35.835401515703829 ] } },
{ "type": "Feature", "properties": { "カテゴリ": "こどもルーム", "名前": "旭小こどもルーム", "住所": "柏市旭町6-5-17　旭小学校内", "Latitude": 37.9140235, "Longitude": 139.0428065 }, "geometry": { "type": "Point", "coordinates": [ 139.042806500000012, 37.9140235 ] } },
{ "type": "Feature", "properties": { "カテゴリ": "こどもルーム", "名前": "中原小こどもルーム", "住所": "柏市中原1821－1 中原小学校内", "Latitude": 37.989672, "Longitude": 140.4420401 }, "geometry": { "type": "Point", "coordinates": [ 140.442040100000014, 37.989672 ] } },
{ "type": "Feature", "properties": { "カテゴリ": "こどもルーム", "名前": "花野井小こどもルーム", "住所": "柏市花野井1652-34 花野井小学校内", "Latitude": 35.0017445, "Longitude": 135.7439744 }, "geometry": { "type": "Point", "coordinates": [ 135.743974400000013, 35.0017445 ] } },
{ "type": "Feature", "properties": { "カテゴリ": "こどもルーム", "名前": "柏一小こどもルーム", "住所": "柏市あけぼの1-7-6 柏第一小学校内", "Latitude": 35.865826757309506, "Longitude": 139.97179854294296 }, "geometry": { "type": "Point", "coordinates": [ 139.971798542942963, 35.865826757309506 ] } },
{ "type": "Feature", "properties": { "カテゴリ": "こどもルーム", "名前": "土南部小こどもルーム", "住所": "柏市新逆井1-10-1　土南部小学校内", "Latitude": 35.812215628226383, "Longitude": 139.97417682841666 }, "geometry": { "type": "Point", "coordinates": [ 139.97417682841666, 35.812215628226383 ] } },
{ "type": "Feature", "properties": { "カテゴリ": "こどもルーム", "名前": "柏八小こどもルーム", "住所": "柏市永楽台2-8-1　柏第八小学校内", "Latitude": 35.8443635273631, "Longitude": 139.97105459256582 }, "geometry": { "type": "Point", "coordinates": [ 139.971054592565821, 35.8443635273631 ] } },
{ "type": "Feature", "properties": { "カテゴリ": "こどもルーム", "名前": "柏三小こどもルーム", "住所": "柏市若葉町4-54　柏第三小学校内", "Latitude": 35.854331520148072, "Longitude": 139.97178066432258 }, "geometry": { "type": "Point", "coordinates": [ 139.97178066432258, 35.854331520148072 ] } },
{ "type": "Feature", "properties": { "カテゴリ": "こどもルーム", "名前": "柏四小こどもルーム", "住所": "柏市松ヶ崎1182-9　柏第四小学校内", "Latitude": 35.874607204438099, "Longitude": 139.96892637873887 }, "geometry": { "type": "Point", "coordinates": [ 139.968926378738871, 35.874607204438099 ] } },
{ "type": "Feature", "properties": { "カテゴリ": "こどもルーム", "名前": "松葉一小こどもルーム", "住所": "柏市松葉町5-3　松葉第一小学校内", "Latitude": 35.888633727377716, "Longitude": 139.9667740121188 }, "geometry": { "type": "Point", "coordinates": [ 139.966774012118805, 35.888633727377716 ] } },
{ "type": "Feature", "properties": { "カテゴリ": "こどもルーム", "名前": "風早南部小こどもルーム", "住所": "柏市藤ケ谷新田111-2　風早南部小学校内", "Latitude": 35.818005092599876, "Longitude": 140.01791411109457 }, "geometry": { "type": "Point", "coordinates": [ 140.017914111094569, 35.818005092599876 ] } },
{ "type": "Feature", "properties": { "カテゴリ": "こどもルーム", "名前": "富勢小こどもルーム", "住所": "柏市布施925‐1　富勢小学校内", "Latitude": 35.0074132, "Longitude": 135.7516127 }, "geometry": { "type": "Point", "coordinates": [ 135.75161270000001, 35.0074132 ] } },
{ "type": "Feature", "properties": { "カテゴリ": "こどもルーム", "名前": "大津ケ丘一小こどもルーム", "住所": "柏市大津ケ丘3-50　大津ケ丘第一小学校内", "Latitude": 35.839636788060126, "Longitude": 139.99634520121003 }, "geometry": { "type": "Point", "coordinates": [ 139.996345201210033, 35.839636788060126 ] } },
{ "type": "Feature", "properties": { "カテゴリ": "こどもルーム", "名前": "高柳小こどもルーム", "住所": "柏市高南台3-14-12　高柳小学校内", "Latitude": 34.9930346, "Longitude": 135.7514143 }, "geometry": { "type": "Point", "coordinates": [ 135.7514143, 34.9930346 ] } },
{ "type": "Feature", "properties": { "カテゴリ": "こどもルーム", "名前": "風早北部小こどもルーム（第２）", "住所": "柏市大島田25　沼南庁舎バス乗継場隣り", "Latitude": 35.841873035491233, "Longitude": 140.00718711124975 }, "geometry": { "type": "Point", "coordinates": [ 140.007187111249749, 35.841873035491233 ] } },
{ "type": "Feature", "properties": { "カテゴリ": "こどもルーム", "名前": "富勢東小こどもルーム", "住所": "柏市布施2176-2　富勢東小学校内", "Latitude": 34.9999863, "Longitude": 135.7519773 }, "geometry": { "type": "Point", "coordinates": [ 135.7519773, 34.9999863 ] } },
{ "type": "Feature", "properties": { "カテゴリ": "こどもルーム", "名前": "風早北部小こどもルーム（第１）", "住所": "柏市大井1852-10　風早北部小学校隣接", "Latitude": 35.843507062512209, "Longitude": 140.00795690345385 }, "geometry": { "type": "Point", "coordinates": [ 140.007956903453845, 35.843507062512209 ] } },
{ "type": "Feature", "properties": { "カテゴリ": "こどもルーム", "名前": "大津ケ丘二小こどもルーム", "住所": "柏市大津ケ丘4-8　大津ケ丘第二小学校内", "Latitude": 35.836057123305693, "Longitude": 140.00296519668956 }, "geometry": { "type": "Point", "coordinates": [ 140.002965196689559, 35.836057123305693 ] } },
{ "type": "Feature", "properties": { "カテゴリ": "こどもルーム", "名前": "柏の葉小こどもルーム", "住所": "柏市十余二348-48　中央404街区3　柏の葉小学校内", "Latitude": 35.88510333022532, "Longitude": 139.95271640728475 }, "geometry": { "type": "Point", "coordinates": [ 139.952716407284754, 35.88510333022532 ] } },
{ "type": "Feature", "properties": { "カテゴリ": "こどもルーム", "名前": "高田小こどもルーム", "住所": "柏市高田376-3　高田小学校内", "Latitude": 37.989672, "Longitude": 140.4420401 }, "geometry": { "type": "Point", "coordinates": [ 140.442040100000014, 37.989672 ] } },
{ "type": "Feature", "properties": { "カテゴリ": "こどもルーム", "名前": "柏六小こどもルーム", "住所": "柏市豊四季台4-2-1　柏第六小学校内", "Latitude": 35.863310575492861, "Longitude": 139.95531092653329 }, "geometry": { "type": "Point", "coordinates": [ 139.955310926533286, 35.863310575492861 ] } },
{ "type": "Feature", "properties": { "カテゴリ": "こどもルーム", "名前": "酒井根西小こどもルーム", "住所": "柏市酒井根662-1　酒井根西小学校内", "Latitude": 35.818299305838678, "Longitude": 139.95328609778244 }, "geometry": { "type": "Point", "coordinates": [ 139.953286097782438, 35.818299305838678 ] } },
{ "type": "Feature", "properties": { "カテゴリ": "こどもルーム", "名前": "田中北小こどもルーム", "住所": "柏市船戸1丁目7番1 田中北小学校内", "Latitude": 35.914037248995463, "Longitude": 139.95152386951835 }, "geometry": { "type": "Point", "coordinates": [ 139.951523869518354, 35.914037248995463 ] } },
{ "type": "Feature", "properties": { "カテゴリ": "こどもルーム", "名前": "柏二小こどもルーム", "住所": "柏市豊四季310　柏第二小学校内", "Latitude": 35.858703425926372, "Longitude": 139.94938395583796 }, "geometry": { "type": "Point", "coordinates": [ 139.949383955837959, 35.858703425926372 ] } },
{ "type": "Feature", "properties": { "カテゴリ": "こどもルーム", "名前": "西原小こどもルーム", "住所": "柏市西原4-17-1　西原小学校内", "Latitude": 37.989672, "Longitude": 140.4420401 }, "geometry": { "type": "Point", "coordinates": [ 140.442040100000014, 37.989672 ] } },
{ "type": "Feature", "properties": { "カテゴリ": "こどもルーム", "名前": "十余二小こどもルーム", "住所": "柏市柏の葉4-4-1 十余二小学校内", "Latitude": 35.897909735515334, "Longitude": 139.93286567276567 }, "geometry": { "type": "Point", "coordinates": [ 139.932865672765672, 35.897909735515334 ] } },
{ "type": "Feature", "properties": { "カテゴリ": "こどもルーム発達センター・キッズルーム", "名前": "こども発達センター", "住所": "柏市柏下65-1", "Latitude": 35.8690844, "Longitude": 139.9842362 }, "geometry": { "type": "Point", "coordinates": [ 139.9842362, 35.8690844 ] } },
{ "type": "Feature", "properties": { "カテゴリ": "こどもルーム発達センター・キッズルーム", "名前": "キッズルームひまわり", "住所": "柏市柏下65-1", "Latitude": 35.8690844, "Longitude": 139.9842362 }, "geometry": { "type": "Point", "coordinates": [ 139.9842362, 35.8690844 ] } },
{ "type": "Feature", "properties": { "カテゴリ": "こどもルーム発達センター・キッズルーム", "名前": "キッズルームこすもす", "住所": "柏市柏下65-1", "Latitude": 35.8690844, "Longitude": 139.9842362 }, "geometry": { "type": "Point", "coordinates": [ 139.9842362, 35.8690844 ] } },
{ "type": "Feature", "properties": { "カテゴリ": "こども図書館", "名前": "こども図書館", "住所": "柏市大島田48-1　沼南庁舎内1階", "Latitude": 35.841518410092256, "Longitude": 140.00773799978055 }, "geometry": { "type": "Point", "coordinates": [ 140.007737999780545, 35.841518410092256 ] } },
{ "type": "Feature", "properties": { "カテゴリ": "市役所・支所・出張所", "名前": "光ケ丘出張所", "住所": "柏市光ケ丘団地２００－５", "Latitude": 35.829479, "Longitude": 139.957812 }, "geometry": { "type": "Point", "coordinates": [ 139.957812, 35.829479 ] } },
{ "type": "Feature", "properties": { "カテゴリ": "市役所・支所・出張所", "名前": "豊四季台出張所", "住所": "柏市豊四季台１－１－１１６", "Latitude": 35.8622518, "Longitude": 139.9588058 }, "geometry": { "type": "Point", "coordinates": [ 139.9588058, 35.8622518 ] } },
{ "type": "Feature", "properties": { "カテゴリ": "市役所・支所・出張所", "名前": "田中出張所", "住所": "柏市大室２４９－１", "Latitude": 35.903394, "Longitude": 139.965102 }, "geometry": { "type": "Point", "coordinates": [ 139.965102, 35.903394 ] } },
{ "type": "Feature", "properties": { "カテゴリ": "市役所・支所・出張所", "名前": "柏駅前行政サービスセンター", "住所": "柏市末広町1番1号　柏髙島屋ステーションモール 新館12階", "Latitude": 35.862278328598251, "Longitude": 139.9696091679215 }, "geometry": { "type": "Point", "coordinates": [ 139.969609167921504, 35.862278328598251 ] } },
{ "type": "Feature", "properties": { "カテゴリ": "市役所・支所・出張所", "名前": "松葉出張所", "住所": "柏市松葉町４－１１", "Latitude": 35.8842357, "Longitude": 139.9803553 }, "geometry": { "type": "Point", "coordinates": [ 139.980355300000014, 35.8842357 ] } },
{ "type": "Feature", "properties": { "カテゴリ": "市役所・支所・出張所", "名前": "南部出張所", "住所": "新逆井２丁目５番１３号", "Latitude": 35.809551484948685, "Longitude": 139.9723683748519 }, "geometry": { "type": "Point", "coordinates": [ 139.972368374851897, 35.809551484948685 ] } },
{ "type": "Feature", "properties": { "カテゴリ": "市役所・支所・出張所", "名前": "高柳出張所", "住所": "柏市高柳１６５２－１０", "Latitude": 35.8081725, "Longitude": 139.9988464 }, "geometry": { "type": "Point", "coordinates": [ 139.9988464, 35.8081725 ] } },
{ "type": "Feature", "properties": { "カテゴリ": "市役所・支所・出張所", "名前": "富勢出張所", "住所": "柏市布施８３４－１", "Latitude": 35.891518, "Longitude": 139.992822 }, "geometry": { "type": "Point", "coordinates": [ 139.992822, 35.891518 ] } },
{ "type": "Feature", "properties": { "カテゴリ": "市役所・支所・出張所", "名前": "沼南庁舎（支所）", "住所": "柏市大島田４８－１", "Latitude": 35.8385442, "Longitude": 140.0107655 }, "geometry": { "type": "Point", "coordinates": [ 140.0107655, 35.8385442 ] } },
{ "type": "Feature", "properties": { "カテゴリ": "市役所・支所・出張所", "名前": "柏の葉サービスコーナー", "住所": "柏市若柴１７３－８　柏の葉キャンパス１５１街区ＳＢ－４　パークシティ柏の葉キャンパス一番街B棟１階", "Latitude": 35.893411407248941, "Longitude": 139.95334157258392 }, "geometry": { "type": "Point", "coordinates": [ 139.953341572583923, 35.893411407248941 ] } },
{ "type": "Feature", "properties": { "カテゴリ": "市役所・支所・出張所", "名前": "西原出張所", "住所": "柏市西原３－２－４８", "Latitude": 35.8893609, "Longitude": 139.9235332 }, "geometry": { "type": "Point", "coordinates": [ 139.9235332, 35.8893609 ] } },
{ "type": "Feature", "properties": { "カテゴリ": "近隣センター", "名前": "富里近隣センター", "住所": "柏市富里2-4-4", "Latitude": 35.8542614, "Longitude": 139.9670273 }, "geometry": { "type": "Point", "coordinates": [ 139.967027300000012, 35.8542614 ] } },
{ "type": "Feature", "properties": { "カテゴリ": "近隣センター", "名前": "酒井根近隣センター", "住所": "柏市酒井根653-4", "Latitude": 35.818148, "Longitude": 139.957828 }, "geometry": { "type": "Point", "coordinates": [ 139.957828, 35.818148 ] } },
{ "type": "Feature", "properties": { "カテゴリ": "近隣センター", "名前": "光ケ丘近隣センター", "住所": "柏市光ケ丘団地200-5", "Latitude": 35.829479, "Longitude": 139.957812 }, "geometry": { "type": "Point", "coordinates": [ 139.957812, 35.829479 ] } },
{ "type": "Feature", "properties": { "カテゴリ": "近隣センター", "名前": "豊四季台近隣センター", "住所": "柏市豊四季台1-1-116", "Latitude": 35.8622518, "Longitude": 139.9588058 }, "geometry": { "type": "Point", "coordinates": [ 139.9588058, 35.8622518 ] } },
{ "type": "Feature", "properties": { "カテゴリ": "近隣センター", "名前": "田中近隣センター", "住所": "柏市大室２４９－１", "Latitude": 35.903394, "Longitude": 139.965102 }, "geometry": { "type": "Point", "coordinates": [ 139.965102, 35.903394 ] } },
{ "type": "Feature", "properties": { "カテゴリ": "近隣センター", "名前": "永楽台近隣センター", "住所": "柏市永楽台2-11-25", "Latitude": 35.8424505, "Longitude": 139.9708677 }, "geometry": { "type": "Point", "coordinates": [ 139.970867700000014, 35.8424505 ] } },
{ "type": "Feature", "properties": { "カテゴリ": "近隣センター", "名前": "松葉近隣センター", "住所": "柏市松葉町4-11", "Latitude": 35.8842357, "Longitude": 139.9803553 }, "geometry": { "type": "Point", "coordinates": [ 139.980355300000014, 35.8842357 ] } },
{ "type": "Feature", "properties": { "カテゴリ": "近隣センター", "名前": "南部近隣センター（体育館）", "住所": "柏市南逆井1-20-1", "Latitude": 35.8083747, "Longitude": 139.9825577 }, "geometry": { "type": "Point", "coordinates": [ 139.9825577, 35.8083747 ] } },
{ "type": "Feature", "properties": { "カテゴリ": "近隣センター", "名前": "ふれあいプラザ（南部近隣センター）", "住所": "柏市新逆井2-5-13", "Latitude": 35.8196965, "Longitude": 139.9901521 }, "geometry": { "type": "Point", "coordinates": [ 139.990152099999989, 35.8196965 ] } },
{ "type": "Feature", "properties": { "カテゴリ": "近隣センター", "名前": "柏ビレジ近隣センター", "住所": "柏市大室1285‐1", "Latitude": 35.903394, "Longitude": 139.965102 }, "geometry": { "type": "Point", "coordinates": [ 139.965102, 35.903394 ] } },
{ "type": "Feature", "properties": { "カテゴリ": "近隣センター", "名前": "高柳近隣センター", "住所": "柏市高柳1652‐10", "Latitude": 35.8081725, "Longitude": 139.9988464 }, "geometry": { "type": "Point", "coordinates": [ 139.9988464, 35.8081725 ] } },
{ "type": "Feature", "properties": { "カテゴリ": "近隣センター", "名前": "布施近隣センター", "住所": "柏市布施1196-5", "Latitude": 35.891518, "Longitude": 139.992822 }, "geometry": { "type": "Point", "coordinates": [ 139.992822, 35.891518 ] } },
{ "type": "Feature", "properties": { "カテゴリ": "近隣センター", "名前": "沼南近隣センター（暫定）（沼南庁舎５階）", "住所": "大島田48-1（沼南庁舎5階）", "Latitude": 34.372608, "Longitude": 132.53378 }, "geometry": { "type": "Point", "coordinates": [ 132.53378, 34.372608 ] } },
{ "type": "Feature", "properties": { "カテゴリ": "近隣センター", "名前": "沼南近隣センター（暫定）", "住所": "大島田21-2", "Latitude": 38.955377, "Longitude": 139.915786 }, "geometry": { "type": "Point", "coordinates": [ 139.915786, 38.955377 ] } },
{ "type": "Feature", "properties": { "カテゴリ": "近隣センター", "名前": "北部近隣センター", "住所": "柏市大青田1541-2", "Latitude": 35.913442, "Longitude": 139.93249 }, "geometry": { "type": "Point", "coordinates": [ 139.93249, 35.913442 ] } },
{ "type": "Feature", "properties": { "カテゴリ": "近隣センター", "名前": "豊四季台近隣センター（体育館）", "住所": "柏市かやの町2-65", "Latitude": 35.865931, "Longitude": 139.954568 }, "geometry": { "type": "Point", "coordinates": [ 139.954568, 35.865931 ] } },
{ "type": "Feature", "properties": { "カテゴリ": "近隣センター", "名前": "新富近隣センター", "住所": "柏市豊四季945-1", "Latitude": 35.8665483, "Longitude": 139.9395437 }, "geometry": { "type": "Point", "coordinates": [ 139.9395437, 35.8665483 ] } },
{ "type": "Feature", "properties": { "カテゴリ": "近隣センター", "名前": "西原近隣センター", "住所": "柏市西原3-2-48", "Latitude": 35.8893609, "Longitude": 139.9235332 }, "geometry": { "type": "Point", "coordinates": [ 139.9235332, 35.8893609 ] } },
{ "type": "Feature", "properties": { "カテゴリ": "近隣センター", "名前": "西原近隣センター（体育館）", "住所": "柏市西原2-10-62", "Latitude": 35.8893609, "Longitude": 139.9235332 }, "geometry": { "type": "Point", "coordinates": [ 139.9235332, 35.8893609 ] } },
{ "type": "Feature", "properties": { "カテゴリ": "図書館", "名前": "柏市立図書館　豊四季台分館", "住所": "柏市豊四季台1-1-111", "Latitude": 35.8622518, "Longitude": 139.9588058 }, "geometry": { "type": "Point", "coordinates": [ 139.9588058, 35.8622518 ] } },
{ "type": "Feature", "properties": { "カテゴリ": "図書館", "名前": "柏市立図書館　高田分館", "住所": "柏市高田693-2　高田近隣センター内", "Latitude": 35.874530159072322, "Longitude": 139.96043080389197 }, "geometry": { "type": "Point", "coordinates": [ 139.960430803891967, 35.874530159072322 ] } },
{ "type": "Feature", "properties": { "カテゴリ": "図書館", "名前": "柏市立図書館　高田分館臨時カウンター", "住所": "千葉県柏市篠籠田119", "Latitude": 35.868124, "Longitude": 139.943357 }, "geometry": { "type": "Point", "coordinates": [ 139.943357, 35.868124 ] } },
{ "type": "Feature", "properties": { "カテゴリ": "図書館", "名前": "柏市立図書館　松葉分館", "住所": "柏市松葉町4-11　松葉近隣センター内", "Latitude": 35.889522896644422, "Longitude": 139.96980854300455 }, "geometry": { "type": "Point", "coordinates": [ 139.969808543004547, 35.889522896644422 ] } },
{ "type": "Feature", "properties": { "カテゴリ": "図書館", "名前": "柏市立図書館　本館", "住所": "柏市柏5-8-12", "Latitude": 35.8616954, "Longitude": 139.9701737 }, "geometry": { "type": "Point", "coordinates": [ 139.9701737, 35.8616954 ] } },
{ "type": "Feature", "properties": { "カテゴリ": "図書館", "名前": "柏市立図書館　根戸分館", "住所": "柏市根戸467　根戸近隣センター内", "Latitude": 35.885471275914632, "Longitude": 139.986590669641 }, "geometry": { "type": "Point", "coordinates": [ 139.986590669641004, 35.885471275914632 ] } },
{ "type": "Feature", "properties": { "カテゴリ": "図書館", "名前": "柏市立図書館　西原分館", "住所": "柏市西原3-2-48　西原近隣センター内", "Latitude": 35.896874224050755, "Longitude": 139.92000891091286 }, "geometry": { "type": "Point", "coordinates": [ 139.920008910912856, 35.896874224050755 ] } },
{ "type": "Feature", "properties": { "カテゴリ": "図書館", "名前": "柏市立図書館　田中分館", "住所": "柏市大室249-1　田中近隣センター内", "Latitude": 35.90389555749563, "Longitude": 139.95865621932379 }, "geometry": { "type": "Point", "coordinates": [ 139.958656219323785, 35.90389555749563 ] } },
{ "type": "Feature", "properties": { "カテゴリ": "図書館", "名前": "ららぽーと柏の葉　返却ポスト", "住所": "ららぽーと柏の葉北館１階エレベーターホール", "Latitude": 35.894007049771986, "Longitude": 139.95128850565817 }, "geometry": { "type": "Point", "coordinates": [ 139.951288505658169, 35.894007049771986 ] } },
{ "type": "Feature", "properties": { "カテゴリ": "図書館", "名前": "柏市立図書館　布施分館", "住所": "柏市布施1196-5　布施近隣センター内", "Latitude": 35.892072057774982, "Longitude": 139.99780850150796 }, "geometry": { "type": "Point", "coordinates": [ 139.997808501507961, 35.892072057774982 ] } },
{ "type": "Feature", "properties": { "カテゴリ": "薬局", "名前": "柏の葉薬局", "住所": "柏市若柴173-8 B棟SB3-1", "Latitude": 35.893289980879281, "Longitude": 139.95340682612709 }, "geometry": { "type": "Point", "coordinates": [ 139.953406826127093, 35.893289980879281 ] } },
{ "type": "Feature", "properties": { "カテゴリ": "薬局", "名前": "クオール薬局柏の葉店", "住所": "柏市若柴178-4　148街区1B", "Latitude": 35.896108237390095, "Longitude": 139.95180176684792 }, "geometry": { "type": "Point", "coordinates": [ 139.951801766847922, 35.896108237390095 ] } },
{ "type": "Feature", "properties": { "カテゴリ": "薬局", "名前": "クオール薬局ＫＯＩＬテラス店", "住所": "柏市若柴226-44中央141街区1-103", "Latitude": 35.896535788950501, "Longitude": 139.95304946563536 }, "geometry": { "type": "Point", "coordinates": [ 139.95304946563536, 35.896535788950501 ] } },
{ "type": "Feature", "properties": { "カテゴリ": "薬局", "名前": "クオール薬局花野井店", "住所": "柏市大室1218-13", "Latitude": 35.903394, "Longitude": 139.965102 }, "geometry": { "type": "Point", "coordinates": [ 139.965102, 35.903394 ] } },
{ "type": "Feature", "properties": { "カテゴリ": "薬局", "名前": "調剤薬局マツモトキヨシ柏たなか店", "住所": "柏市小青田1-2-3", "Latitude": 35.9107918, "Longitude": 139.9501251 }, "geometry": { "type": "Point", "coordinates": [ 139.9501251, 35.9107918 ] } },
{ "type": "Feature", "properties": { "カテゴリ": "薬局", "名前": "日本調剤柏の葉公園薬局", "住所": "柏市柏の葉5-4-18", "Latitude": 35.8970046, "Longitude": 139.9380514 }, "geometry": { "type": "Point", "coordinates": [ 139.9380514, 35.8970046 ] } },
{ "type": "Feature", "properties": { "カテゴリ": "薬局", "名前": "日本調剤柏の葉薬局", "住所": "柏市若柴227-6 147街区Ｅ-1", "Latitude": 35.896644074061726, "Longitude": 139.95185428061762 }, "geometry": { "type": "Point", "coordinates": [ 139.951854280617624, 35.896644074061726 ] } },
{ "type": "Feature", "properties": { "カテゴリ": "薬局", "名前": "ゆずのき薬局", "住所": "柏市西原7-7-21", "Latitude": 35.8893609, "Longitude": 139.9235332 }, "geometry": { "type": "Point", "coordinates": [ 139.9235332, 35.8893609 ] } },
{ "type": "Feature", "properties": { "カテゴリ": "薬局", "名前": "ウエルシア薬局北柏店", "住所": "柏市北柏 4-3-12", "Latitude": 35.0285244, "Longitude": 135.5465016 }, "geometry": { "type": "Point", "coordinates": [ 135.5465016, 35.0285244 ] } },
{ "type": "Feature", "properties": { "カテゴリ": "薬局", "名前": "サンドラック柏松葉町薬局", "住所": "柏市松葉町2-15-1", "Latitude": 35.8842357, "Longitude": 139.9803553 }, "geometry": { "type": "Point", "coordinates": [ 139.980355300000014, 35.8842357 ] } },
{ "type": "Feature", "properties": { "カテゴリ": "薬局", "名前": "スローライフ薬局", "住所": "柏市松葉町 5-17-4　エイムコーポ103", "Latitude": 35.890299802766016, "Longitude": 139.96445246860051 }, "geometry": { "type": "Point", "coordinates": [ 139.964452468600513, 35.890299802766016 ] } },
{ "type": "Feature", "properties": { "カテゴリ": "薬局", "名前": "たかはし薬局", "住所": "柏市高田139-2", "Latitude": 35.877697, "Longitude": 139.949221 }, "geometry": { "type": "Point", "coordinates": [ 139.949221, 35.877697 ] } },
{ "type": "Feature", "properties": { "カテゴリ": "薬局", "名前": "さくら薬局北柏駅前店", "住所": "柏市北柏3-1-2　寺田ビル1F", "Latitude": 35.874872539912779, "Longitude": 139.98851553122836 }, "geometry": { "type": "Point", "coordinates": [ 139.988515531228359, 35.874872539912779 ] } },
{ "type": "Feature", "properties": { "カテゴリ": "薬局", "名前": "みやこ薬局", "住所": "柏市布施814-66", "Latitude": 35.891518, "Longitude": 139.992822 }, "geometry": { "type": "Point", "coordinates": [ 139.992822, 35.891518 ] } },
{ "type": "Feature", "properties": { "カテゴリ": "薬局", "名前": "モミの木薬局", "住所": "柏市松葉町 4-12-2", "Latitude": 36.3970092, "Longitude": 136.4483258 }, "geometry": { "type": "Point", "coordinates": [ 136.4483258, 36.3970092 ] } },
{ "type": "Feature", "properties": { "カテゴリ": "薬局", "名前": "アイン薬局柏松ヶ崎店", "住所": "柏市大山台 2-10", "Latitude": 35.883446, "Longitude": 139.9672225 }, "geometry": { "type": "Point", "coordinates": [ 139.9672225, 35.883446 ] } },
{ "type": "Feature", "properties": { "カテゴリ": "薬局", "名前": "アイン薬局柏駅前店", "住所": "柏市末広町9-14　小竹ビル1Ｆ", "Latitude": 35.8640040759568, "Longitude": 139.97134427312866 }, "geometry": { "type": "Point", "coordinates": [ 139.971344273128665, 35.8640040759568 ] } },
{ "type": "Feature", "properties": { "カテゴリ": "薬局", "名前": "あけぼの薬局東店", "住所": "柏市篠籠田 616-3", "Latitude": 35.868124, "Longitude": 139.943357 }, "geometry": { "type": "Point", "coordinates": [ 139.943357, 35.868124 ] } },
{ "type": "Feature", "properties": { "カテゴリ": "薬局", "名前": "イントロン薬局柏店", "住所": "柏市新富町1-2-34", "Latitude": 36.678741, "Longitude": 136.864378 }, "geometry": { "type": "Point", "coordinates": [ 136.864378, 36.678741 ] } },
{ "type": "Feature", "properties": { "カテゴリ": "薬局", "名前": "ウエルシア薬局南柏駅西口店", "住所": "柏市南柏1丁目8-16", "Latitude": 34.8347025, "Longitude": 134.6892167 }, "geometry": { "type": "Point", "coordinates": [ 134.6892167, 34.8347025 ] } },
{ "type": "Feature", "properties": { "カテゴリ": "薬局", "名前": "かしわ鈴薬局", "住所": "柏市明原3-3-12", "Latitude": 35.8695928, "Longitude": 139.9630875 }, "geometry": { "type": "Point", "coordinates": [ 139.9630875, 35.8695928 ] } },
{ "type": "Feature", "properties": { "カテゴリ": "薬局", "名前": "柏薬局明原店", "住所": "柏市明原3-2-6", "Latitude": 35.8695928, "Longitude": 139.9630875 }, "geometry": { "type": "Point", "coordinates": [ 139.9630875, 35.8695928 ] } },
{ "type": "Feature", "properties": { "カテゴリ": "薬局", "名前": "アイン薬局柏末広店", "住所": "柏市末広町9-14", "Latitude": 35.8628953, "Longitude": 139.9707658 }, "geometry": { "type": "Point", "coordinates": [ 139.9707658, 35.8628953 ] } },
{ "type": "Feature", "properties": { "カテゴリ": "薬局", "名前": "杉浦薬局", "住所": "柏市南柏1-6-5", "Latitude": 35.8446196, "Longitude": 139.9542125 }, "geometry": { "type": "Point", "coordinates": [ 139.954212500000011, 35.8446196 ] } },
{ "type": "Feature", "properties": { "カテゴリ": "薬局", "名前": "スギ薬局柏豊四季店", "住所": "柏市豊四季227番地1", "Latitude": 35.863222179402776, "Longitude": 139.95036083594363 }, "geometry": { "type": "Point", "coordinates": [ 139.950360835943627, 35.863222179402776 ] } },
{ "type": "Feature", "properties": { "カテゴリ": "薬局", "名前": "豊四季ファーマシー", "住所": "柏市豊四季台1-3-1", "Latitude": 35.8622518, "Longitude": 139.9588058 }, "geometry": { "type": "Point", "coordinates": [ 139.9588058, 35.8622518 ] } },
{ "type": "Feature", "properties": { "カテゴリ": "薬局", "名前": "日本調剤旭町薬局", "住所": "柏市旭町1-4-11", "Latitude": 35.8614368, "Longitude": 139.9532749 }, "geometry": { "type": "Point", "coordinates": [ 139.9532749, 35.8614368 ] } },
{ "type": "Feature", "properties": { "カテゴリ": "薬局", "名前": "日本調剤柏中央薬局", "住所": "柏市明原1-11-12", "Latitude": 38.0158277, "Longitude": 140.6207893 }, "geometry": { "type": "Point", "coordinates": [ 140.620789300000013, 38.0158277 ] } },
{ "type": "Feature", "properties": { "カテゴリ": "薬局", "名前": "ひまわり薬局豊四季駅前店", "住所": "柏市豊四季 1008-8 ピアンターレＭ", "Latitude": 35.865884009437259, "Longitude": 139.9387905657658 }, "geometry": { "type": "Point", "coordinates": [ 139.9387905657658, 35.865884009437259 ] } },
{ "type": "Feature", "properties": { "カテゴリ": "薬局", "名前": "薬局おおたかの森", "住所": "柏市豊四季114-12", "Latitude": 35.8665483, "Longitude": 139.9395437 }, "geometry": { "type": "Point", "coordinates": [ 139.9395437, 35.8665483 ] } },
{ "type": "Feature", "properties": { "カテゴリ": "薬局", "名前": "薬局マツモトキヨシ柏旭町店", "住所": "柏市旭町 4-6-2", "Latitude": 35.862101, "Longitude": 139.9671634 }, "geometry": { "type": "Point", "coordinates": [ 139.9671634, 35.862101 ] } },
{ "type": "Feature", "properties": { "カテゴリ": "薬局", "名前": "薬局マツモトキヨシ柏駅西口店", "住所": "柏市末広町 4-1 神崎ビル1F", "Latitude": 35.862920849330109, "Longitude": 139.97003909736378 }, "geometry": { "type": "Point", "coordinates": [ 139.970039097363781, 35.862920849330109 ] } },
{ "type": "Feature", "properties": { "カテゴリ": "薬局", "名前": "あさひ薬局", "住所": "柏市柏下276-5", "Latitude": 35.8690844, "Longitude": 139.9842362 }, "geometry": { "type": "Point", "coordinates": [ 139.9842362, 35.8690844 ] } },
{ "type": "Feature", "properties": { "カテゴリ": "薬局", "名前": "イオン薬局柏店", "住所": "柏市豊町 2-5-25", "Latitude": 36.5719189, "Longitude": 136.6570303 }, "geometry": { "type": "Point", "coordinates": [ 136.6570303, 36.5719189 ] } },
{ "type": "Feature", "properties": { "カテゴリ": "薬局", "名前": "フローラ薬局柏駅前店", "住所": "柏市柏4丁目4-17", "Latitude": 34.6962197, "Longitude": 135.1006294 }, "geometry": { "type": "Point", "coordinates": [ 135.1006294, 34.6962197 ] } },
{ "type": "Feature", "properties": { "カテゴリ": "薬局", "名前": "オレンジ薬局", "住所": "柏市柏下278-1", "Latitude": 35.8690844, "Longitude": 139.9842362 }, "geometry": { "type": "Point", "coordinates": [ 139.9842362, 35.8690844 ] } },
{ "type": "Feature", "properties": { "カテゴリ": "薬局", "名前": "カワシマ薬局", "住所": "柏市中央町5-15", "Latitude": 35.859301, "Longitude": 139.970567 }, "geometry": { "type": "Point", "coordinates": [ 139.970567, 35.859301 ] } },
{ "type": "Feature", "properties": { "カテゴリ": "薬局", "名前": "アイン薬局北柏店", "住所": "柏市柏下 153-2", "Latitude": 35.8690844, "Longitude": 139.9842362 }, "geometry": { "type": "Point", "coordinates": [ 139.9842362, 35.8690844 ] } },
{ "type": "Feature", "properties": { "カテゴリ": "薬局", "名前": "つなぐ薬局柏", "住所": "柏市東 1-2-45サンライズイシド302", "Latitude": 35.85781188281728, "Longitude": 139.97683634888131 }, "geometry": { "type": "Point", "coordinates": [ 139.976836348881307, 35.85781188281728 ] } },
{ "type": "Feature", "properties": { "カテゴリ": "薬局", "名前": "ハタノ薬局", "住所": "柏市千代田 1-1-12千代田ハイツ102", "Latitude": 35.856808043561898, "Longitude": 139.97419642108261 }, "geometry": { "type": "Point", "coordinates": [ 139.97419642108261, 35.856808043561898 ] } },
{ "type": "Feature", "properties": { "カテゴリ": "薬局", "名前": "クオール薬局ビックカメラ柏店", "住所": "柏市柏1-1-20 スカイプラザ柏２階206区画", "Latitude": 35.862338572253179, "Longitude": 139.97210962930853 }, "geometry": { "type": "Point", "coordinates": [ 139.972109629308534, 35.862338572253179 ] } },
{ "type": "Feature", "properties": { "カテゴリ": "薬局", "名前": "ハーブランド薬局柏３丁目店", "住所": "柏市柏3-7-26", "Latitude": 35.8616954, "Longitude": 139.9701737 }, "geometry": { "type": "Point", "coordinates": [ 139.9701737, 35.8616954 ] } },
{ "type": "Feature", "properties": { "カテゴリ": "薬局", "名前": "ハーブランド薬局中央店", "住所": "柏市中央2-2-8", "Latitude": 45.41556, "Longitude": 141.6742478 }, "geometry": { "type": "Point", "coordinates": [ 141.674247799999989, 45.41556 ] } },
{ "type": "Feature", "properties": { "カテゴリ": "薬局", "名前": "ファーコス薬局イルカ", "住所": "柏市柏4-6-25 YKビル1F", "Latitude": 35.863671369215318, "Longitude": 139.9743011207317 }, "geometry": { "type": "Point", "coordinates": [ 139.974301120731695, 35.863671369215318 ] } },
{ "type": "Feature", "properties": { "カテゴリ": "薬局", "名前": "ファーコス薬局柏わかば", "住所": "柏市若葉町11-12　やまとマンション1F", "Latitude": 35.851403327507704, "Longitude": 139.97314978969885 }, "geometry": { "type": "Point", "coordinates": [ 139.973149789698851, 35.851403327507704 ] } },
{ "type": "Feature", "properties": { "カテゴリ": "薬局", "名前": "薬局タカサオアシス柏", "住所": "柏市千代田3-8-7ヴィヌス柏1Ｆ", "Latitude": 35.853423413827677, "Longitude": 139.97636603545158 }, "geometry": { "type": "Point", "coordinates": [ 139.976366035451576, 35.853423413827677 ] } },
{ "type": "Feature", "properties": { "カテゴリ": "薬局", "名前": "薬局マツモトキヨシ柏東口駅前店", "住所": "柏市柏2-2-2浅野ビル", "Latitude": 35.8619267, "Longitude": 139.9722497 }, "geometry": { "type": "Point", "coordinates": [ 139.9722497, 35.8619267 ] } },
{ "type": "Feature", "properties": { "カテゴリ": "薬局", "名前": "薬局メディクス柏店", "住所": "柏市柏3-3-19", "Latitude": 35.8616954, "Longitude": 139.9701737 }, "geometry": { "type": "Point", "coordinates": [ 139.9701737, 35.8616954 ] } },
{ "type": "Feature", "properties": { "カテゴリ": "薬局", "名前": "ヤックスドラッグ北柏薬局", "住所": "柏市柏下158", "Latitude": 35.8690844, "Longitude": 139.9842362 }, "geometry": { "type": "Point", "coordinates": [ 139.9842362, 35.8690844 ] } },
{ "type": "Feature", "properties": { "カテゴリ": "薬局", "名前": "アイン薬局慈恵柏病院前店", "住所": "柏市柏下154", "Latitude": 35.8690844, "Longitude": 139.9842362 }, "geometry": { "type": "Point", "coordinates": [ 139.9842362, 35.8690844 ] } },
{ "type": "Feature", "properties": { "カテゴリ": "薬局", "名前": "若葉薬局", "住所": "柏市若葉町 6-2みずきハイツ１階", "Latitude": 35.853628249382105, "Longitude": 139.96996256359233 }, "geometry": { "type": "Point", "coordinates": [ 139.969962563592333, 35.853628249382105 ] } },
{ "type": "Feature", "properties": { "カテゴリ": "薬局", "名前": "アイン薬局名戸ヶ谷店", "住所": "柏市中原字名戸ヶ谷前 1816-1", "Latitude": 35.839426771491432, "Longitude": 139.97118732049512 }, "geometry": { "type": "Point", "coordinates": [ 139.971187320495119, 35.839426771491432 ] } },
{ "type": "Feature", "properties": { "カテゴリ": "薬局", "名前": "きっこう台薬局", "住所": "柏市亀甲台町 1-6-23", "Latitude": 35.8459479, "Longitude": 139.9830697 }, "geometry": { "type": "Point", "coordinates": [ 139.983069699999987, 35.8459479 ] } },
{ "type": "Feature", "properties": { "カテゴリ": "薬局", "名前": "つくし薬局", "住所": "柏市つくしが丘2-4-14", "Latitude": 35.8354153, "Longitude": 139.9622878 }, "geometry": { "type": "Point", "coordinates": [ 139.962287800000013, 35.8354153 ] } },
{ "type": "Feature", "properties": { "カテゴリ": "薬局", "名前": "イオックス薬局南柏店", "住所": "柏市今谷上町45-23", "Latitude": 35.8398873, "Longitude": 139.9562725 }, "geometry": { "type": "Point", "coordinates": [ 139.956272500000011, 35.8398873 ] } },
{ "type": "Feature", "properties": { "カテゴリ": "薬局", "名前": "つくし薬局光ヶ丘店", "住所": "柏市光ヶ丘2-18-18", "Latitude": 35.8277151, "Longitude": 139.9574438 }, "geometry": { "type": "Point", "coordinates": [ 139.9574438, 35.8277151 ] } },
{ "type": "Feature", "properties": { "カテゴリ": "薬局", "名前": "ハーブランド薬局南柏店", "住所": "柏市南柏中央3-10", "Latitude": 35.8439308, "Longitude": 139.9549775 }, "geometry": { "type": "Point", "coordinates": [ 139.954977500000012, 35.8439308 ] } },
{ "type": "Feature", "properties": { "カテゴリ": "薬局", "名前": "光ヶ丘薬局", "住所": "柏市光ヶ丘2-3-10", "Latitude": 35.8277151, "Longitude": 139.9574438 }, "geometry": { "type": "Point", "coordinates": [ 139.9574438, 35.8277151 ] } },
{ "type": "Feature", "properties": { "カテゴリ": "薬局", "名前": "フォレスト薬局", "住所": "柏市光ケ丘団地4?200", "Latitude": 35.829479, "Longitude": 139.957812 }, "geometry": { "type": "Point", "coordinates": [ 139.957812, 35.829479 ] } },
{ "type": "Feature", "properties": { "カテゴリ": "薬局", "名前": "みどり薬局", "住所": "柏市豊住1-1-4", "Latitude": 35.840968, "Longitude": 139.962162 }, "geometry": { "type": "Point", "coordinates": [ 139.962162, 35.840968 ] } },
{ "type": "Feature", "properties": { "カテゴリ": "薬局", "名前": "薬局マツモトキヨシ光ヶ丘店", "住所": "柏市光ヶ丘 2-21-25", "Latitude": 35.8277151, "Longitude": 139.9574438 }, "geometry": { "type": "Point", "coordinates": [ 139.9574438, 35.8277151 ] } },
{ "type": "Feature", "properties": { "カテゴリ": "薬局", "名前": "友愛薬局南柏店", "住所": "柏市南柏中央6-1　三上ﾋﾞﾙ1Ｆ", "Latitude": 35.84406703059112, "Longitude": 139.95454037657478 }, "geometry": { "type": "Point", "coordinates": [ 139.954540376574784, 35.84406703059112 ] } },
{ "type": "Feature", "properties": { "カテゴリ": "薬局", "名前": "ウエルシア薬局柏酒井根店", "住所": "柏市酒井根 2-37-5", "Latitude": 35.818148, "Longitude": 139.957828 }, "geometry": { "type": "Point", "coordinates": [ 139.957828, 35.818148 ] } },
{ "type": "Feature", "properties": { "カテゴリ": "薬局", "名前": "ウエルシア薬局柏名戸ヶ谷店", "住所": "柏市名戸ヶ谷857-4", "Latitude": 35.8456111, "Longitude": 139.9823778 }, "geometry": { "type": "Point", "coordinates": [ 139.9823778, 35.8456111 ] } },
{ "type": "Feature", "properties": { "カテゴリ": "薬局", "名前": "ウエルシア薬局柏南増尾店", "住所": "柏市南増尾 8-3-31", "Latitude": 35.816387, "Longitude": 139.974068 }, "geometry": { "type": "Point", "coordinates": [ 139.974068, 35.816387 ] } },
{ "type": "Feature", "properties": { "カテゴリ": "薬局", "名前": "加賀調剤薬局", "住所": "柏市加賀3-19-4", "Latitude": 35.8292273, "Longitude": 139.9690695 }, "geometry": { "type": "Point", "coordinates": [ 139.969069499999989, 35.8292273 ] } },
{ "type": "Feature", "properties": { "カテゴリ": "薬局", "名前": "こばと薬局", "住所": "柏市南逆井4-10-2", "Latitude": 35.8083747, "Longitude": 139.9825577 }, "geometry": { "type": "Point", "coordinates": [ 139.9825577, 35.8083747 ] } },
{ "type": "Feature", "properties": { "カテゴリ": "薬局", "名前": "サンフラワー薬局", "住所": "柏市東逆井 1-22-1", "Latitude": 35.8212379, "Longitude": 139.9751354 }, "geometry": { "type": "Point", "coordinates": [ 139.9751354, 35.8212379 ] } },
{ "type": "Feature", "properties": { "カテゴリ": "薬局", "名前": "なの花薬局柏店", "住所": "柏市新柏1丁目13-9", "Latitude": 34.8347025, "Longitude": 134.6892167 }, "geometry": { "type": "Point", "coordinates": [ 134.6892167, 34.8347025 ] } },
{ "type": "Feature", "properties": { "カテゴリ": "薬局", "名前": "ライオン薬局", "住所": "柏市逆井4-26-7", "Latitude": 35.8232385, "Longitude": 139.9839107 }, "geometry": { "type": "Point", "coordinates": [ 139.9839107, 35.8232385 ] } },
{ "type": "Feature", "properties": { "カテゴリ": "薬局", "名前": "おおい薬局", "住所": "柏市大井755-16", "Latitude": 35.850154, "Longitude": 140.00441 }, "geometry": { "type": "Point", "coordinates": [ 140.00441, 35.850154 ] } },
{ "type": "Feature", "properties": { "カテゴリ": "薬局", "名前": "かえる薬局手賀の杜店", "住所": "柏市岩井789-12", "Latitude": 35.847048, "Longitude": 140.03414 }, "geometry": { "type": "Point", "coordinates": [ 140.03414, 35.847048 ] } },
{ "type": "Feature", "properties": { "カテゴリ": "薬局", "名前": "シエロ薬局", "住所": "柏市高柳1142-39", "Latitude": 35.8081725, "Longitude": 139.9988464 }, "geometry": { "type": "Point", "coordinates": [ 139.9988464, 35.8081725 ] } },
{ "type": "Feature", "properties": { "カテゴリ": "薬局", "名前": "高柳薬局", "住所": "柏市高柳1-1-1-101", "Latitude": 35.8081725, "Longitude": 139.9988464 }, "geometry": { "type": "Point", "coordinates": [ 139.9988464, 35.8081725 ] } },
{ "type": "Feature", "properties": { "カテゴリ": "薬局", "名前": "ハーブランド薬局沼南店", "住所": "柏市大津ヶ丘4-25-5", "Latitude": 35.8446475, "Longitude": 140.003068 }, "geometry": { "type": "Point", "coordinates": [ 140.003068, 35.8446475 ] } },
{ "type": "Feature", "properties": { "カテゴリ": "薬局", "名前": "ファーコス薬局柏みなみ", "住所": "柏市高柳新田17-114", "Latitude": 35.8078, "Longitude": 139.991559 }, "geometry": { "type": "Point", "coordinates": [ 139.991559, 35.8078 ] } },
{ "type": "Feature", "properties": { "カテゴリ": "薬局", "名前": "薬局メディクス北柏店", "住所": "柏市北柏4-1-1", "Latitude": 35.87565, "Longitude": 139.9880138 }, "geometry": { "type": "Point", "coordinates": [ 139.9880138, 35.87565 ] } },
{ "type": "Feature", "properties": { "カテゴリ": "薬局", "名前": "みずき薬局豊四季店", "住所": "柏市篠籠田字今泉 977-6", "Latitude": 35.0032867, "Longitude": 135.7703556 }, "geometry": { "type": "Point", "coordinates": [ 135.770355599999988, 35.0032867 ] } },
{ "type": "Feature", "properties": { "カテゴリ": "薬局", "名前": "あおば薬局柏中央店", "住所": "柏市泉町1-32", "Latitude": 35.856451, "Longitude": 139.967951 }, "geometry": { "type": "Point", "coordinates": [ 139.967951, 35.856451 ] } },
{ "type": "Feature", "properties": { "カテゴリ": "薬局", "名前": "ハーブランド薬局本店", "住所": "柏市柏1-1-7", "Latitude": 35.8616954, "Longitude": 139.9701737 }, "geometry": { "type": "Point", "coordinates": [ 139.9701737, 35.8616954 ] } },
{ "type": "Feature", "properties": { "カテゴリ": "薬局", "名前": "よろづ屋薬局柏店", "住所": "柏市東1-2-4　ワコーマンション1-A号", "Latitude": 35.857563688535627, "Longitude": 139.97668345991335 }, "geometry": { "type": "Point", "coordinates": [ 139.976683459913346, 35.857563688535627 ] } },
{ "type": "Feature", "properties": { "カテゴリ": "市立小学校", "名前": "手賀西小学校", "住所": "柏市泉541", "Latitude": 35.8379491, "Longitude": 140.0430043 }, "geometry": { "type": "Point", "coordinates": [ 140.0430043, 35.8379491 ] } },
{ "type": "Feature", "properties": { "カテゴリ": "市立小学校", "名前": "手賀東小学校", "住所": "柏市手賀479-7", "Latitude": 35.838552, "Longitude": 140.075619 }, "geometry": { "type": "Point", "coordinates": [ 140.075619, 35.838552 ] } },
{ "type": "Feature", "properties": { "カテゴリ": "市立小学校", "名前": "逆井小学校", "住所": "柏市逆井４５２-２", "Latitude": 35.8232385, "Longitude": 139.9839107 }, "geometry": { "type": "Point", "coordinates": [ 139.9839107, 35.8232385 ] } },
{ "type": "Feature", "properties": { "カテゴリ": "市立小学校", "名前": "土小学校", "住所": "柏市増尾4-4-1", "Latitude": 35.8295829, "Longitude": 139.9767076 }, "geometry": { "type": "Point", "coordinates": [ 139.9767076, 35.8295829 ] } },
{ "type": "Feature", "properties": { "カテゴリ": "市立小学校", "名前": "高柳西小学校", "住所": "柏市しいの木台3-2", "Latitude": 35.802828798042313, "Longitude": 139.9823820629899 }, "geometry": { "type": "Point", "coordinates": [ 139.982382062989899, 35.802828798042313 ] } },
{ "type": "Feature", "properties": { "カテゴリ": "市立小学校", "名前": "松葉第二小学校", "住所": "柏市松葉町2-16", "Latitude": 35.8842357, "Longitude": 139.9803553 }, "geometry": { "type": "Point", "coordinates": [ 139.980355300000014, 35.8842357 ] } },
{ "type": "Feature", "properties": { "カテゴリ": "市立小学校", "名前": "土南部小学校", "住所": "柏市新逆井1-10-1", "Latitude": 35.8196965, "Longitude": 139.9901521 }, "geometry": { "type": "Point", "coordinates": [ 139.990152099999989, 35.8196965 ] } },
{ "type": "Feature", "properties": { "カテゴリ": "市立小学校", "名前": "増尾西小学校", "住所": "柏市増尾台3-5-9", "Latitude": 35.8343014, "Longitude": 139.9820509 }, "geometry": { "type": "Point", "coordinates": [ 139.9820509, 35.8343014 ] } },
{ "type": "Feature", "properties": { "カテゴリ": "市立小学校", "名前": "名戸ケ谷小学校", "住所": "柏市名戸ケ谷474-1", "Latitude": 35.843483, "Longitude": 139.9812712 }, "geometry": { "type": "Point", "coordinates": [ 139.9812712, 35.843483 ] } },
{ "type": "Feature", "properties": { "カテゴリ": "市立小学校", "名前": "柏第五小学校", "住所": "柏市柏932-7", "Latitude": 35.8616954, "Longitude": 139.9701737 }, "geometry": { "type": "Point", "coordinates": [ 139.9701737, 35.8616954 ] } },
{ "type": "Feature", "properties": { "カテゴリ": "市立小学校", "名前": "富勢西小学校", "住所": "柏市布施84-2", "Latitude": 35.891518, "Longitude": 139.992822 }, "geometry": { "type": "Point", "coordinates": [ 139.992822, 35.891518 ] } },
{ "type": "Feature", "properties": { "カテゴリ": "市立小学校", "名前": "酒井根小学校", "住所": "柏市酒井根19-2", "Latitude": 35.818148, "Longitude": 139.957828 }, "geometry": { "type": "Point", "coordinates": [ 139.957828, 35.818148 ] } },
{ "type": "Feature", "properties": { "カテゴリ": "市立小学校", "名前": "豊小学校", "住所": "柏市豊四季610-2", "Latitude": 35.8665483, "Longitude": 139.9395437 }, "geometry": { "type": "Point", "coordinates": [ 139.9395437, 35.8665483 ] } },
{ "type": "Feature", "properties": { "カテゴリ": "市立小学校", "名前": "旭東小学校", "住所": "柏市旭町5-3-9", "Latitude": 35.8614368, "Longitude": 139.9532749 }, "geometry": { "type": "Point", "coordinates": [ 139.9532749, 35.8614368 ] } },
{ "type": "Feature", "properties": { "カテゴリ": "市立小学校", "名前": "酒井根東小学校", "住所": "柏市酒井根1-2-1", "Latitude": 35.818148, "Longitude": 139.957828 }, "geometry": { "type": "Point", "coordinates": [ 139.957828, 35.818148 ] } },
{ "type": "Feature", "properties": { "カテゴリ": "市立小学校", "名前": "田中小学校", "住所": "柏市大室1193-3", "Latitude": 35.903394, "Longitude": 139.965102 }, "geometry": { "type": "Point", "coordinates": [ 139.965102, 35.903394 ] } },
{ "type": "Feature", "properties": { "カテゴリ": "市立小学校", "名前": "柏第七小学校", "住所": "柏市篠籠田723-1", "Latitude": 35.868124, "Longitude": 139.943357 }, "geometry": { "type": "Point", "coordinates": [ 139.943357, 35.868124 ] } },
{ "type": "Feature", "properties": { "カテゴリ": "市立小学校", "名前": "中原小学校", "住所": "柏市中原1821-1", "Latitude": 35.837312, "Longitude": 139.971091 }, "geometry": { "type": "Point", "coordinates": [ 139.971091, 35.837312 ] } },
{ "type": "Feature", "properties": { "カテゴリ": "市立小学校", "名前": "花野井小学校", "住所": "柏市花野井1652-34", "Latitude": 35.896736, "Longitude": 139.974237 }, "geometry": { "type": "Point", "coordinates": [ 139.974237, 35.896736 ] } },
{ "type": "Feature", "properties": { "カテゴリ": "市立小学校", "名前": "柏第八小学校", "住所": "柏市永楽台2-8-1", "Latitude": 35.8424505, "Longitude": 139.9708677 }, "geometry": { "type": "Point", "coordinates": [ 139.970867700000014, 35.8424505 ] } },
{ "type": "Feature", "properties": { "カテゴリ": "市立小学校", "名前": "柏第一小学校", "住所": "柏市あけぼの1-7-6", "Latitude": 35.897833, "Longitude": 140.0076143 }, "geometry": { "type": "Point", "coordinates": [ 140.0076143, 35.897833 ] } },
{ "type": "Feature", "properties": { "カテゴリ": "市立小学校", "名前": "柏第三小学校", "住所": "柏市若葉町4-54", "Latitude": 35.853921, "Longitude": 139.971057 }, "geometry": { "type": "Point", "coordinates": [ 139.971057, 35.853921 ] } },
{ "type": "Feature", "properties": { "カテゴリ": "市立小学校", "名前": "松葉第一小学校", "住所": "柏市松葉町5-3", "Latitude": 35.8842357, "Longitude": 139.9803553 }, "geometry": { "type": "Point", "coordinates": [ 139.980355300000014, 35.8842357 ] } },
{ "type": "Feature", "properties": { "カテゴリ": "市立小学校", "名前": "柏第四小学校", "住所": "柏市松ケ崎1182-9", "Latitude": 35.8783875, "Longitude": 139.9757861 }, "geometry": { "type": "Point", "coordinates": [ 139.9757861, 35.8783875 ] } },
{ "type": "Feature", "properties": { "カテゴリ": "市立小学校", "名前": "風早南部小学校", "住所": "柏市藤ケ谷新田111-2", "Latitude": 35.822048, "Longitude": 140.019138 }, "geometry": { "type": "Point", "coordinates": [ 140.019138, 35.822048 ] } },
{ "type": "Feature", "properties": { "カテゴリ": "市立小学校", "名前": "富勢小学校", "住所": "柏市布施925-1", "Latitude": 35.891518, "Longitude": 139.992822 }, "geometry": { "type": "Point", "coordinates": [ 139.992822, 35.891518 ] } },
{ "type": "Feature", "properties": { "カテゴリ": "市立小学校", "名前": "藤心小学校", "住所": "柏市藤心880-1", "Latitude": 35.820541, "Longitude": 139.995833 }, "geometry": { "type": "Point", "coordinates": [ 139.995833, 35.820541 ] } },
{ "type": "Feature", "properties": { "カテゴリ": "市立小学校", "名前": "大津ケ丘第一小学校", "住所": "柏市大津ケ丘3-50", "Latitude": 35.8446475, "Longitude": 140.003068 }, "geometry": { "type": "Point", "coordinates": [ 140.003068, 35.8446475 ] } },
{ "type": "Feature", "properties": { "カテゴリ": "市立小学校", "名前": "高柳小学校", "住所": "柏市高南台3-14-12", "Latitude": 38.244208, "Longitude": 140.8571939 }, "geometry": { "type": "Point", "coordinates": [ 140.8571939, 38.244208 ] } },
{ "type": "Feature", "properties": { "カテゴリ": "市立小学校", "名前": "富勢東小学校", "住所": "柏市布施2176-2", "Latitude": 35.891518, "Longitude": 139.992822 }, "geometry": { "type": "Point", "coordinates": [ 139.992822, 35.891518 ] } },
{ "type": "Feature", "properties": { "カテゴリ": "市立小学校", "名前": "風早北部小学校", "住所": "柏市大井1854-1", "Latitude": 35.850154, "Longitude": 140.00441 }, "geometry": { "type": "Point", "coordinates": [ 140.00441, 35.850154 ] } },
{ "type": "Feature", "properties": { "カテゴリ": "市立小学校", "名前": "大津ケ丘第二小学校", "住所": "柏市大津ケ丘4-8", "Latitude": 35.8446475, "Longitude": 140.003068 }, "geometry": { "type": "Point", "coordinates": [ 140.003068, 35.8446475 ] } },
{ "type": "Feature", "properties": { "カテゴリ": "市立小学校", "名前": "柏の葉小学校", "住所": "柏市十余二348-51中央404街区1", "Latitude": 35.885874021152929, "Longitude": 139.95263641048365 }, "geometry": { "type": "Point", "coordinates": [ 139.952636410483649, 35.885874021152929 ] } },
{ "type": "Feature", "properties": { "カテゴリ": "市立小学校", "名前": "高田小学校", "住所": "柏市高田376-3", "Latitude": 35.877697, "Longitude": 139.949221 }, "geometry": { "type": "Point", "coordinates": [ 139.949221, 35.877697 ] } },
{ "type": "Feature", "properties": { "カテゴリ": "市立小学校", "名前": "柏第六小学校", "住所": "柏市豊四季台4-2-1", "Latitude": 35.8622518, "Longitude": 139.9588058 }, "geometry": { "type": "Point", "coordinates": [ 139.9588058, 35.8622518 ] } },
{ "type": "Feature", "properties": { "カテゴリ": "市立小学校", "名前": "光ケ丘小学校", "住所": "流山市向小金4-20-1", "Latitude": 35.8379159, "Longitude": 139.9473774 }, "geometry": { "type": "Point", "coordinates": [ 139.9473774, 35.8379159 ] } },
{ "type": "Feature", "properties": { "カテゴリ": "市立小学校", "名前": "旭小学校", "住所": "柏市旭町6-5-17", "Latitude": 35.8614368, "Longitude": 139.9532749 }, "geometry": { "type": "Point", "coordinates": [ 139.9532749, 35.8614368 ] } },
{ "type": "Feature", "properties": { "カテゴリ": "市立小学校", "名前": "酒井根西小学校", "住所": "柏市酒井根662-1", "Latitude": 35.818148, "Longitude": 139.957828 }, "geometry": { "type": "Point", "coordinates": [ 139.957828, 35.818148 ] } },
{ "type": "Feature", "properties": { "カテゴリ": "市立小学校", "名前": "田中北小学校", "住所": "柏市船戸1-7-1", "Latitude": 35.9137398, "Longitude": 139.9511422 }, "geometry": { "type": "Point", "coordinates": [ 139.9511422, 35.9137398 ] } },
{ "type": "Feature", "properties": { "カテゴリ": "市立小学校", "名前": "柏第二小学校", "住所": "柏市豊四季310", "Latitude": 35.8665483, "Longitude": 139.9395437 }, "geometry": { "type": "Point", "coordinates": [ 139.9395437, 35.8665483 ] } },
{ "type": "Feature", "properties": { "カテゴリ": "市立小学校", "名前": "西原小学校", "住所": "柏市西原4-17-1", "Latitude": 35.8893609, "Longitude": 139.9235332 }, "geometry": { "type": "Point", "coordinates": [ 139.9235332, 35.8893609 ] } },
{ "type": "Feature", "properties": { "カテゴリ": "市立小学校", "名前": "十余二小学校", "住所": "柏市柏の葉4-4-1", "Latitude": 35.8970046, "Longitude": 139.9380514 }, "geometry": { "type": "Point", "coordinates": [ 139.9380514, 35.8970046 ] } },
{ "type": "Feature", "properties": { "カテゴリ": "市内中学校", "名前": "手賀中学校", "住所": "柏市柳戸690", "Latitude": 35.8384272, "Longitude": 140.0546751 }, "geometry": { "type": "Point", "coordinates": [ 140.0546751, 35.8384272 ] } },
{ "type": "Feature", "properties": { "カテゴリ": "市内中学校", "名前": "土中学校", "住所": "柏市増尾1-23-1", "Latitude": 35.8295829, "Longitude": 139.9767076 }, "geometry": { "type": "Point", "coordinates": [ 139.9767076, 35.8295829 ] } },
{ "type": "Feature", "properties": { "カテゴリ": "市内中学校", "名前": "柏第四中学校", "住所": "柏市名戸ケ谷1-6-8", "Latitude": 35.843483, "Longitude": 139.9812712 }, "geometry": { "type": "Point", "coordinates": [ 139.9812712, 35.843483 ] } },
{ "type": "Feature", "properties": { "カテゴリ": "市内中学校", "名前": "柏第二中学校", "住所": "柏市弥生町6-6", "Latitude": 35.855147, "Longitude": 139.985878 }, "geometry": { "type": "Point", "coordinates": [ 139.985878, 35.855147 ] } },
{ "type": "Feature", "properties": { "カテゴリ": "市内中学校", "名前": "逆井中学校", "住所": "柏市逆井555", "Latitude": 35.8232385, "Longitude": 139.9839107 }, "geometry": { "type": "Point", "coordinates": [ 139.9839107, 35.8232385 ] } },
{ "type": "Feature", "properties": { "カテゴリ": "市内中学校", "名前": "芝浦工業大学柏中学校", "住所": "柏市増尾700", "Latitude": 35.8295829, "Longitude": 139.9767076 }, "geometry": { "type": "Point", "coordinates": [ 139.9767076, 35.8295829 ] } },
{ "type": "Feature", "properties": { "カテゴリ": "市内中学校", "名前": "富勢中学校", "住所": "柏市根戸467-1", "Latitude": 35.881129, "Longitude": 139.986449 }, "geometry": { "type": "Point", "coordinates": [ 139.986449, 35.881129 ] } },
{ "type": "Feature", "properties": { "カテゴリ": "市内中学校", "名前": "南部中学校", "住所": "柏市南増尾6-16-1", "Latitude": 35.816387, "Longitude": 139.974068 }, "geometry": { "type": "Point", "coordinates": [ 139.974068, 35.816387 ] } },
{ "type": "Feature", "properties": { "カテゴリ": "市内中学校", "名前": "柏中学校", "住所": "柏市明原4-1-1", "Latitude": 35.8695928, "Longitude": 139.9630875 }, "geometry": { "type": "Point", "coordinates": [ 139.9630875, 35.8695928 ] } },
{ "type": "Feature", "properties": { "カテゴリ": "市内中学校", "名前": "田中中学校", "住所": "柏市大室249-9", "Latitude": 35.903394, "Longitude": 139.965102 }, "geometry": { "type": "Point", "coordinates": [ 139.965102, 35.903394 ] } },
{ "type": "Feature", "properties": { "カテゴリ": "市内中学校", "名前": "中原中学校", "住所": "柏市中原1816-2", "Latitude": 35.837312, "Longitude": 139.971091 }, "geometry": { "type": "Point", "coordinates": [ 139.971091, 35.837312 ] } },
{ "type": "Feature", "properties": { "カテゴリ": "市内中学校", "名前": "松葉中学校", "住所": "柏市松葉町3-14", "Latitude": 35.8842357, "Longitude": 139.9803553 }, "geometry": { "type": "Point", "coordinates": [ 139.980355300000014, 35.8842357 ] } },
{ "type": "Feature", "properties": { "カテゴリ": "市内中学校", "名前": "酒井根中学校", "住所": "柏市酒井根1-3-1", "Latitude": 35.818148, "Longitude": 139.957828 }, "geometry": { "type": "Point", "coordinates": [ 139.957828, 35.818148 ] } },
{ "type": "Feature", "properties": { "カテゴリ": "市内中学校", "名前": "県立東葛飾中学校", "住所": "柏市旭町3-2-1", "Latitude": 35.8614368, "Longitude": 139.9532749 }, "geometry": { "type": "Point", "coordinates": [ 139.9532749, 35.8614368 ] } },
{ "type": "Feature", "properties": { "カテゴリ": "市内中学校", "名前": "柏第五中学校", "住所": "柏市高田919-1", "Latitude": 35.877697, "Longitude": 139.949221 }, "geometry": { "type": "Point", "coordinates": [ 139.949221, 35.877697 ] } },
{ "type": "Feature", "properties": { "カテゴリ": "市内中学校", "名前": "光ケ丘中学校", "住所": "柏市光ケ丘4-23-1", "Latitude": 35.8277151, "Longitude": 139.9574438 }, "geometry": { "type": "Point", "coordinates": [ 139.9574438, 35.8277151 ] } },
{ "type": "Feature", "properties": { "カテゴリ": "市内中学校", "名前": "二松学舎大学附属柏中学校", "住所": "柏市大井2590", "Latitude": 35.850154, "Longitude": 140.00441 }, "geometry": { "type": "Point", "coordinates": [ 140.00441, 35.850154 ] } },
{ "type": "Feature", "properties": { "カテゴリ": "市内中学校", "名前": "高柳中学校", "住所": "柏市高南台1-1-1", "Latitude": 38.244208, "Longitude": 140.8571939 }, "geometry": { "type": "Point", "coordinates": [ 140.8571939, 38.244208 ] } },
{ "type": "Feature", "properties": { "カテゴリ": "市内中学校", "名前": "大津ケ丘中学校", "住所": "柏市大津ケ丘1-25", "Latitude": 35.8446475, "Longitude": 140.003068 }, "geometry": { "type": "Point", "coordinates": [ 140.003068, 35.8446475 ] } },
{ "type": "Feature", "properties": { "カテゴリ": "市内中学校", "名前": "風早中学校", "住所": "柏市塚崎1319", "Latitude": 35.834927, "Longitude": 139.996057 }, "geometry": { "type": "Point", "coordinates": [ 139.996057, 35.834927 ] } },
{ "type": "Feature", "properties": { "カテゴリ": "市内中学校", "名前": "柏第三中学校", "住所": "柏市篠籠田987-1", "Latitude": 35.868124, "Longitude": 139.943357 }, "geometry": { "type": "Point", "coordinates": [ 139.943357, 35.868124 ] } },
{ "type": "Feature", "properties": { "カテゴリ": "市内中学校", "名前": "柏の葉中学校", "住所": "柏市十余二337-93 中央405街区1", "Latitude": 35.885800938727371, "Longitude": 139.9540914815839 }, "geometry": { "type": "Point", "coordinates": [ 139.954091481583902, 35.885800938727371 ] } },
{ "type": "Feature", "properties": { "カテゴリ": "市内中学校", "名前": "豊四季中学校", "住所": "柏市豊四季287-7", "Latitude": 35.8665483, "Longitude": 139.9395437 }, "geometry": { "type": "Point", "coordinates": [ 139.9395437, 35.8665483 ] } },
{ "type": "Feature", "properties": { "カテゴリ": "市内中学校", "名前": "麗澤中学校", "住所": "柏市光ケ丘2-1-1", "Latitude": 35.8277151, "Longitude": 139.9574438 }, "geometry": { "type": "Point", "coordinates": [ 139.9574438, 35.8277151 ] } },
{ "type": "Feature", "properties": { "カテゴリ": "市内中学校", "名前": "西原中学校", "住所": "柏市西原6-13-1", "Latitude": 35.8893609, "Longitude": 139.9235332 }, "geometry": { "type": "Point", "coordinates": [ 139.9235332, 35.8893609 ] } },
{ "type": "Feature", "properties": { "カテゴリ": "市内中学校", "名前": "流通経済大学附属柏中学校", "住所": "柏市十余二1-20", "Latitude": 35.882628, "Longitude": 139.959308 }, "geometry": { "type": "Point", "coordinates": [ 139.959308, 35.882628 ] } },
{ "type": "Feature", "properties": { "カテゴリ": "高等学校", "名前": "県立沼南高校", "住所": "柏市岩井678-3", "Latitude": 35.847048, "Longitude": 140.03414 }, "geometry": { "type": "Point", "coordinates": [ 140.03414, 35.847048 ] } },
{ "type": "Feature", "properties": { "カテゴリ": "高等学校", "名前": "県立柏陵高校", "住所": "柏市逆井444-1", "Latitude": 35.8232385, "Longitude": 139.9839107 }, "geometry": { "type": "Point", "coordinates": [ 139.9839107, 35.8232385 ] } },
{ "type": "Feature", "properties": { "カテゴリ": "高等学校", "名前": "県立柏南高校", "住所": "柏市増尾1705", "Latitude": 35.837457, "Longitude": 139.988864 }, "geometry": { "type": "Point", "coordinates": [ 139.988864, 35.837457 ] } },
{ "type": "Feature", "properties": { "カテゴリ": "高等学校", "名前": "県立柏高校", "住所": "柏市布施254", "Latitude": 35.891518, "Longitude": 139.992822 }, "geometry": { "type": "Point", "coordinates": [ 139.992822, 35.891518 ] } },
{ "type": "Feature", "properties": { "カテゴリ": "高等学校", "名前": "日本体育大学柏高校", "住所": "柏市戸張944", "Latitude": 35.8598648, "Longitude": 139.994623 }, "geometry": { "type": "Point", "coordinates": [ 139.994623, 35.8598648 ] } },
{ "type": "Feature", "properties": { "カテゴリ": "高等学校", "名前": "芝浦工業大学柏高校", "住所": "柏市増尾700", "Latitude": 35.8295829, "Longitude": 139.9767076 }, "geometry": { "type": "Point", "coordinates": [ 139.9767076, 35.8295829 ] } },
{ "type": "Feature", "properties": { "カテゴリ": "高等学校", "名前": "県立東葛飾高校", "住所": "柏市旭町3-2-1", "Latitude": 35.8614368, "Longitude": 139.9532749 }, "geometry": { "type": "Point", "coordinates": [ 139.9532749, 35.8614368 ] } },
{ "type": "Feature", "properties": { "カテゴリ": "高等学校", "名前": "県立柏中央高校", "住所": "柏市松ケ崎884-1", "Latitude": 35.8783875, "Longitude": 139.9757861 }, "geometry": { "type": "Point", "coordinates": [ 139.9757861, 35.8783875 ] } },
{ "type": "Feature", "properties": { "カテゴリ": "高等学校", "名前": "二松学舎大学附属柏高校", "住所": "柏市大井2590", "Latitude": 35.850154, "Longitude": 140.00441 }, "geometry": { "type": "Point", "coordinates": [ 140.00441, 35.850154 ] } },
{ "type": "Feature", "properties": { "カテゴリ": "高等学校", "名前": "県立沼南高柳高校", "住所": "柏市高柳995", "Latitude": 35.8081725, "Longitude": 139.9988464 }, "geometry": { "type": "Point", "coordinates": [ 139.9988464, 35.8081725 ] } },
{ "type": "Feature", "properties": { "カテゴリ": "薬局", "名前": "ライオン薬局", "住所": "柏市逆井4-26-7", "Latitude": 35.8232385, "Longitude": 139.9839107 }, "geometry": { "type": "Point", "coordinates": [ 139.9839107, 35.8232385 ] } },
{ "type": "Feature", "properties": { "カテゴリ": "薬局", "名前": "おおい薬局", "住所": "柏市大井755-16", "Latitude": 35.850154, "Longitude": 140.00441 }, "geometry": { "type": "Point", "coordinates": [ 140.00441, 35.850154 ] } },
{ "type": "Feature", "properties": { "カテゴリ": "薬局", "名前": "かえる薬局手賀の杜店", "住所": "柏市岩井789-12", "Latitude": 35.847048, "Longitude": 140.03414 }, "geometry": { "type": "Point", "coordinates": [ 140.03414, 35.847048 ] } },
{ "type": "Feature", "properties": { "カテゴリ": "薬局", "名前": "シエロ薬局", "住所": "柏市高柳1142-39", "Latitude": 35.8081725, "Longitude": 139.9988464 }, "geometry": { "type": "Point", "coordinates": [ 139.9988464, 35.8081725 ] } },
{ "type": "Feature", "properties": { "カテゴリ": "薬局", "名前": "高柳薬局", "住所": "柏市高柳1-1-1-101", "Latitude": 35.8081725, "Longitude": 139.9988464 }, "geometry": { "type": "Point", "coordinates": [ 139.9988464, 35.8081725 ] } },
{ "type": "Feature", "properties": { "カテゴリ": "薬局", "名前": "ハーブランド薬局沼南店", "住所": "柏市大津ヶ丘4-25-5", "Latitude": 35.8446475, "Longitude": 140.003068 }, "geometry": { "type": "Point", "coordinates": [ 140.003068, 35.8446475 ] } },
{ "type": "Feature", "properties": { "カテゴリ": "薬局", "名前": "ファーコス薬局柏みなみ", "住所": "柏市高柳新田17-114", "Latitude": 35.8078, "Longitude": 139.991559 }, "geometry": { "type": "Point", "coordinates": [ 139.991559, 35.8078 ] } },
{ "type": "Feature", "properties": { "カテゴリ": "薬局", "名前": "薬局メディクス北柏店", "住所": "柏市北柏4-1-1", "Latitude": 35.87565, "Longitude": 139.9880138 }, "geometry": { "type": "Point", "coordinates": [ 139.9880138, 35.87565 ] } },
{ "type": "Feature", "properties": { "カテゴリ": "薬局", "名前": "みずき薬局豊四季店", "住所": "柏市篠籠田字今泉 977-6", "Latitude": 35.0032867, "Longitude": 135.7703556 }, "geometry": { "type": "Point", "coordinates": [ 135.770355599999988, 35.0032867 ] } },
{ "type": "Feature", "properties": { "カテゴリ": "薬局", "名前": "あおば薬局柏中央店", "住所": "柏市泉町1-32", "Latitude": 35.856451, "Longitude": 139.967951 }, "geometry": { "type": "Point", "coordinates": [ 139.967951, 35.856451 ] } },
{ "type": "Feature", "properties": { "カテゴリ": "薬局", "名前": "ハーブランド薬局本店", "住所": "柏市柏1-1-7", "Latitude": 35.8616954, "Longitude": 139.9701737 }, "geometry": { "type": "Point", "coordinates": [ 139.9701737, 35.8616954 ] } },
{ "type": "Feature", "properties": { "カテゴリ": "薬局", "名前": "よろづ屋薬局柏店", "住所": "柏市東1-2-4　ワコーマンション1-A号", "Latitude": 35.857560526811916, "Longitude": 139.97668235295066 }, "geometry": { "type": "Point", "coordinates": [ 139.976682352950661, 35.857560526811916 ] } },
{ "type": "Feature", "properties": { "カテゴリ": "市立小学校", "名前": "手賀西小学校", "住所": "柏市泉541", "Latitude": 35.8379491, "Longitude": 140.0430043 }, "geometry": { "type": "Point", "coordinates": [ 140.0430043, 35.8379491 ] } },
{ "type": "Feature", "properties": { "カテゴリ": "市立小学校", "名前": "手賀東小学校", "住所": "柏市手賀479-7", "Latitude": 35.838552, "Longitude": 140.075619 }, "geometry": { "type": "Point", "coordinates": [ 140.075619, 35.838552 ] } },
{ "type": "Feature", "properties": { "カテゴリ": "市立小学校", "名前": "逆井小学校", "住所": "柏市逆井４５２-２", "Latitude": 35.8232385, "Longitude": 139.9839107 }, "geometry": { "type": "Point", "coordinates": [ 139.9839107, 35.8232385 ] } },
{ "type": "Feature", "properties": { "カテゴリ": "市立小学校", "名前": "土小学校", "住所": "柏市増尾4-4-1", "Latitude": 35.8295829, "Longitude": 139.9767076 }, "geometry": { "type": "Point", "coordinates": [ 139.9767076, 35.8295829 ] } },
{ "type": "Feature", "properties": { "カテゴリ": "市立小学校", "名前": "高柳西小学校", "住所": "柏市しいの木台3-2", "Latitude": 35.803027705900597, "Longitude": 139.98230812385964 }, "geometry": { "type": "Point", "coordinates": [ 139.982308123859639, 35.803027705900597 ] } },
{ "type": "Feature", "properties": { "カテゴリ": "市立小学校", "名前": "松葉第二小学校", "住所": "柏市松葉町2-16", "Latitude": 35.8842357, "Longitude": 139.9803553 }, "geometry": { "type": "Point", "coordinates": [ 139.980355300000014, 35.8842357 ] } },
{ "type": "Feature", "properties": { "カテゴリ": "市立小学校", "名前": "土南部小学校", "住所": "柏市新逆井1-10-1", "Latitude": 35.8196965, "Longitude": 139.9901521 }, "geometry": { "type": "Point", "coordinates": [ 139.990152099999989, 35.8196965 ] } },
{ "type": "Feature", "properties": { "カテゴリ": "市立小学校", "名前": "増尾西小学校", "住所": "柏市増尾台3-5-9", "Latitude": 35.8343014, "Longitude": 139.9820509 }, "geometry": { "type": "Point", "coordinates": [ 139.9820509, 35.8343014 ] } },
{ "type": "Feature", "properties": { "カテゴリ": "市立小学校", "名前": "名戸ケ谷小学校", "住所": "柏市名戸ケ谷474-1", "Latitude": 35.843483, "Longitude": 139.9812712 }, "geometry": { "type": "Point", "coordinates": [ 139.9812712, 35.843483 ] } },
{ "type": "Feature", "properties": { "カテゴリ": "市立小学校", "名前": "柏第五小学校", "住所": "柏市柏932-7", "Latitude": 35.8616954, "Longitude": 139.9701737 }, "geometry": { "type": "Point", "coordinates": [ 139.9701737, 35.8616954 ] } },
{ "type": "Feature", "properties": { "カテゴリ": "市立小学校", "名前": "富勢西小学校", "住所": "柏市布施84-2", "Latitude": 35.891518, "Longitude": 139.992822 }, "geometry": { "type": "Point", "coordinates": [ 139.992822, 35.891518 ] } },
{ "type": "Feature", "properties": { "カテゴリ": "市立小学校", "名前": "酒井根小学校", "住所": "柏市酒井根19-2", "Latitude": 35.818148, "Longitude": 139.957828 }, "geometry": { "type": "Point", "coordinates": [ 139.957828, 35.818148 ] } },
{ "type": "Feature", "properties": { "カテゴリ": "市立小学校", "名前": "豊小学校", "住所": "柏市豊四季610-2", "Latitude": 35.8665483, "Longitude": 139.9395437 }, "geometry": { "type": "Point", "coordinates": [ 139.9395437, 35.8665483 ] } },
{ "type": "Feature", "properties": { "カテゴリ": "市立小学校", "名前": "旭東小学校", "住所": "柏市旭町5-3-9", "Latitude": 35.8614368, "Longitude": 139.9532749 }, "geometry": { "type": "Point", "coordinates": [ 139.9532749, 35.8614368 ] } },
{ "type": "Feature", "properties": { "カテゴリ": "市立小学校", "名前": "酒井根東小学校", "住所": "柏市酒井根1-2-1", "Latitude": 35.818148, "Longitude": 139.957828 }, "geometry": { "type": "Point", "coordinates": [ 139.957828, 35.818148 ] } },
{ "type": "Feature", "properties": { "カテゴリ": "市立小学校", "名前": "田中小学校", "住所": "柏市大室1193-3", "Latitude": 35.903394, "Longitude": 139.965102 }, "geometry": { "type": "Point", "coordinates": [ 139.965102, 35.903394 ] } },
{ "type": "Feature", "properties": { "カテゴリ": "市立小学校", "名前": "柏第七小学校", "住所": "柏市篠籠田723-1", "Latitude": 35.868124, "Longitude": 139.943357 }, "geometry": { "type": "Point", "coordinates": [ 139.943357, 35.868124 ] } },
{ "type": "Feature", "properties": { "カテゴリ": "市立小学校", "名前": "中原小学校", "住所": "柏市中原1821-1", "Latitude": 35.837312, "Longitude": 139.971091 }, "geometry": { "type": "Point", "coordinates": [ 139.971091, 35.837312 ] } },
{ "type": "Feature", "properties": { "カテゴリ": "市立小学校", "名前": "花野井小学校", "住所": "柏市花野井1652-34", "Latitude": 35.896736, "Longitude": 139.974237 }, "geometry": { "type": "Point", "coordinates": [ 139.974237, 35.896736 ] } },
{ "type": "Feature", "properties": { "カテゴリ": "市立小学校", "名前": "柏第八小学校", "住所": "柏市永楽台2-8-1", "Latitude": 35.8424505, "Longitude": 139.9708677 }, "geometry": { "type": "Point", "coordinates": [ 139.970867700000014, 35.8424505 ] } },
{ "type": "Feature", "properties": { "カテゴリ": "市立小学校", "名前": "柏第一小学校", "住所": "柏市あけぼの1-7-6", "Latitude": 35.897833, "Longitude": 140.0076143 }, "geometry": { "type": "Point", "coordinates": [ 140.0076143, 35.897833 ] } },
{ "type": "Feature", "properties": { "カテゴリ": "市立小学校", "名前": "柏第三小学校", "住所": "柏市若葉町4-54", "Latitude": 35.853921, "Longitude": 139.971057 }, "geometry": { "type": "Point", "coordinates": [ 139.971057, 35.853921 ] } },
{ "type": "Feature", "properties": { "カテゴリ": "市立小学校", "名前": "松葉第一小学校", "住所": "柏市松葉町5-3", "Latitude": 35.8842357, "Longitude": 139.9803553 }, "geometry": { "type": "Point", "coordinates": [ 139.980355300000014, 35.8842357 ] } },
{ "type": "Feature", "properties": { "カテゴリ": "市立小学校", "名前": "柏第四小学校", "住所": "柏市松ケ崎1182-9", "Latitude": 35.8783875, "Longitude": 139.9757861 }, "geometry": { "type": "Point", "coordinates": [ 139.9757861, 35.8783875 ] } },
{ "type": "Feature", "properties": { "カテゴリ": "市立小学校", "名前": "風早南部小学校", "住所": "柏市藤ケ谷新田111-2", "Latitude": 35.822048, "Longitude": 140.019138 }, "geometry": { "type": "Point", "coordinates": [ 140.019138, 35.822048 ] } },
{ "type": "Feature", "properties": { "カテゴリ": "市立小学校", "名前": "富勢小学校", "住所": "柏市布施925-1", "Latitude": 35.891518, "Longitude": 139.992822 }, "geometry": { "type": "Point", "coordinates": [ 139.992822, 35.891518 ] } },
{ "type": "Feature", "properties": { "カテゴリ": "市立小学校", "名前": "藤心小学校", "住所": "柏市藤心880-1", "Latitude": 35.820541, "Longitude": 139.995833 }, "geometry": { "type": "Point", "coordinates": [ 139.995833, 35.820541 ] } },
{ "type": "Feature", "properties": { "カテゴリ": "市立小学校", "名前": "大津ケ丘第一小学校", "住所": "柏市大津ケ丘3-50", "Latitude": 35.8446475, "Longitude": 140.003068 }, "geometry": { "type": "Point", "coordinates": [ 140.003068, 35.8446475 ] } },
{ "type": "Feature", "properties": { "カテゴリ": "市立小学校", "名前": "高柳小学校", "住所": "柏市高南台3-14-12", "Latitude": 38.244208, "Longitude": 140.8571939 }, "geometry": { "type": "Point", "coordinates": [ 140.8571939, 38.244208 ] } },
{ "type": "Feature", "properties": { "カテゴリ": "市立小学校", "名前": "富勢東小学校", "住所": "柏市布施2176-2", "Latitude": 35.891518, "Longitude": 139.992822 }, "geometry": { "type": "Point", "coordinates": [ 139.992822, 35.891518 ] } },
{ "type": "Feature", "properties": { "カテゴリ": "市立小学校", "名前": "風早北部小学校", "住所": "柏市大井1854-1", "Latitude": 35.850154, "Longitude": 140.00441 }, "geometry": { "type": "Point", "coordinates": [ 140.00441, 35.850154 ] } },
{ "type": "Feature", "properties": { "カテゴリ": "市立小学校", "名前": "大津ケ丘第二小学校", "住所": "柏市大津ケ丘4-8", "Latitude": 35.8446475, "Longitude": 140.003068 }, "geometry": { "type": "Point", "coordinates": [ 140.003068, 35.8446475 ] } },
{ "type": "Feature", "properties": { "カテゴリ": "市立小学校", "名前": "柏の葉小学校", "住所": "柏市十余二348-51中央404街区1", "Latitude": 35.885874021152929, "Longitude": 139.95263641048365 }, "geometry": { "type": "Point", "coordinates": [ 139.952636410483649, 35.885874021152929 ] } },
{ "type": "Feature", "properties": { "カテゴリ": "市立小学校", "名前": "高田小学校", "住所": "柏市高田376-3", "Latitude": 35.877697, "Longitude": 139.949221 }, "geometry": { "type": "Point", "coordinates": [ 139.949221, 35.877697 ] } },
{ "type": "Feature", "properties": { "カテゴリ": "市立小学校", "名前": "柏第六小学校", "住所": "柏市豊四季台4-2-1", "Latitude": 35.8622518, "Longitude": 139.9588058 }, "geometry": { "type": "Point", "coordinates": [ 139.9588058, 35.8622518 ] } },
{ "type": "Feature", "properties": { "カテゴリ": "市立小学校", "名前": "光ケ丘小学校", "住所": "流山市向小金4-20-1", "Latitude": 35.8379159, "Longitude": 139.9473774 }, "geometry": { "type": "Point", "coordinates": [ 139.9473774, 35.8379159 ] } },
{ "type": "Feature", "properties": { "カテゴリ": "市立小学校", "名前": "旭小学校", "住所": "柏市旭町6-5-17", "Latitude": 35.8614368, "Longitude": 139.9532749 }, "geometry": { "type": "Point", "coordinates": [ 139.9532749, 35.8614368 ] } },
{ "type": "Feature", "properties": { "カテゴリ": "市立小学校", "名前": "酒井根西小学校", "住所": "柏市酒井根662-1", "Latitude": 35.818148, "Longitude": 139.957828 }, "geometry": { "type": "Point", "coordinates": [ 139.957828, 35.818148 ] } },
{ "type": "Feature", "properties": { "カテゴリ": "市立小学校", "名前": "田中北小学校", "住所": "柏市船戸1-7-1", "Latitude": 35.9137398, "Longitude": 139.9511422 }, "geometry": { "type": "Point", "coordinates": [ 139.9511422, 35.9137398 ] } },
{ "type": "Feature", "properties": { "カテゴリ": "市立小学校", "名前": "柏第二小学校", "住所": "柏市豊四季310", "Latitude": 35.8665483, "Longitude": 139.9395437 }, "geometry": { "type": "Point", "coordinates": [ 139.9395437, 35.8665483 ] } },
{ "type": "Feature", "properties": { "カテゴリ": "市立小学校", "名前": "西原小学校", "住所": "柏市西原4-17-1", "Latitude": 35.8893609, "Longitude": 139.9235332 }, "geometry": { "type": "Point", "coordinates": [ 139.9235332, 35.8893609 ] } },
{ "type": "Feature", "properties": { "カテゴリ": "市立小学校", "名前": "十余二小学校", "住所": "柏市柏の葉4-4-1", "Latitude": 35.8970046, "Longitude": 139.9380514 }, "geometry": { "type": "Point", "coordinates": [ 139.9380514, 35.8970046 ] } },
{ "type": "Feature", "properties": { "カテゴリ": "市内中学校", "名前": "手賀中学校", "住所": "柏市柳戸690", "Latitude": 35.8384272, "Longitude": 140.0546751 }, "geometry": { "type": "Point", "coordinates": [ 140.0546751, 35.8384272 ] } },
{ "type": "Feature", "properties": { "カテゴリ": "市内中学校", "名前": "土中学校", "住所": "柏市増尾1-23-1", "Latitude": 35.8295829, "Longitude": 139.9767076 }, "geometry": { "type": "Point", "coordinates": [ 139.9767076, 35.8295829 ] } },
{ "type": "Feature", "properties": { "カテゴリ": "市内中学校", "名前": "柏第四中学校", "住所": "柏市名戸ケ谷1-6-8", "Latitude": 35.843483, "Longitude": 139.9812712 }, "geometry": { "type": "Point", "coordinates": [ 139.9812712, 35.843483 ] } },
{ "type": "Feature", "properties": { "カテゴリ": "市内中学校", "名前": "柏第二中学校", "住所": "柏市弥生町6-6", "Latitude": 35.855147, "Longitude": 139.985878 }, "geometry": { "type": "Point", "coordinates": [ 139.985878, 35.855147 ] } },
{ "type": "Feature", "properties": { "カテゴリ": "市内中学校", "名前": "逆井中学校", "住所": "柏市逆井555", "Latitude": 35.8232385, "Longitude": 139.9839107 }, "geometry": { "type": "Point", "coordinates": [ 139.9839107, 35.8232385 ] } },
{ "type": "Feature", "properties": { "カテゴリ": "市内中学校", "名前": "芝浦工業大学柏中学校", "住所": "柏市増尾700", "Latitude": 35.8295829, "Longitude": 139.9767076 }, "geometry": { "type": "Point", "coordinates": [ 139.9767076, 35.8295829 ] } },
{ "type": "Feature", "properties": { "カテゴリ": "市内中学校", "名前": "富勢中学校", "住所": "柏市根戸467-1", "Latitude": 35.881129, "Longitude": 139.986449 }, "geometry": { "type": "Point", "coordinates": [ 139.986449, 35.881129 ] } },
{ "type": "Feature", "properties": { "カテゴリ": "市内中学校", "名前": "南部中学校", "住所": "柏市南増尾6-16-1", "Latitude": 35.816387, "Longitude": 139.974068 }, "geometry": { "type": "Point", "coordinates": [ 139.974068, 35.816387 ] } },
{ "type": "Feature", "properties": { "カテゴリ": "市内中学校", "名前": "柏中学校", "住所": "柏市明原4-1-1", "Latitude": 35.8695928, "Longitude": 139.9630875 }, "geometry": { "type": "Point", "coordinates": [ 139.9630875, 35.8695928 ] } },
{ "type": "Feature", "properties": { "カテゴリ": "市内中学校", "名前": "田中中学校", "住所": "柏市大室249-9", "Latitude": 35.903394, "Longitude": 139.965102 }, "geometry": { "type": "Point", "coordinates": [ 139.965102, 35.903394 ] } },
{ "type": "Feature", "properties": { "カテゴリ": "市内中学校", "名前": "中原中学校", "住所": "柏市中原1816-2", "Latitude": 35.837312, "Longitude": 139.971091 }, "geometry": { "type": "Point", "coordinates": [ 139.971091, 35.837312 ] } },
{ "type": "Feature", "properties": { "カテゴリ": "市内中学校", "名前": "松葉中学校", "住所": "柏市松葉町3-14", "Latitude": 35.8842357, "Longitude": 139.9803553 }, "geometry": { "type": "Point", "coordinates": [ 139.980355300000014, 35.8842357 ] } },
{ "type": "Feature", "properties": { "カテゴリ": "市内中学校", "名前": "酒井根中学校", "住所": "柏市酒井根1-3-1", "Latitude": 35.818148, "Longitude": 139.957828 }, "geometry": { "type": "Point", "coordinates": [ 139.957828, 35.818148 ] } },
{ "type": "Feature", "properties": { "カテゴリ": "市内中学校", "名前": "県立東葛飾中学校", "住所": "柏市旭町3-2-1", "Latitude": 35.8614368, "Longitude": 139.9532749 }, "geometry": { "type": "Point", "coordinates": [ 139.9532749, 35.8614368 ] } },
{ "type": "Feature", "properties": { "カテゴリ": "市内中学校", "名前": "柏第五中学校", "住所": "柏市高田919-1", "Latitude": 35.877697, "Longitude": 139.949221 }, "geometry": { "type": "Point", "coordinates": [ 139.949221, 35.877697 ] } },